new index,기존 index,시장명,소재지지번주소,위도,경도,법정동코드,행정동코드,시도명,시군구명,읍면동명,5일장,복합장,상설장,점포수,공중화장실보유여부,주차장보유여부,운영기간,대형마트,주차장,지하철역,학교,편의점,"주유소,충전소",문화시설,관광명소,음식점,카페,공시지가,행정동 인구,행정동 인구 0 - 4세,행정동 인구 5 - 9세,행정동 인구 10 - 14세,행정동 인구 15 - 19세,행정동 인구 20 - 24세,행정동 인구 25 - 29세,행정동 인구 30 - 34세,행정동 인구 35 - 39세,행정동 인구 40 - 44세,행정동 인구 45 - 49세,행정동 인구 50 - 54세,행정동 인구 55 - 59세,행정동 인구 60 - 64세,행정동 인구 65 - 69세,행정동 인구 70 - 74세,행정동 인구 75 - 79세,행정동 인구 80 - 84세,행정동 인구 85 - 89세,행정동 인구 90 - 94세,행정동 인구 95 - 99세,행정동 인구 100+,행정시구 인구,행정시구 인구 0 - 4세,행정시구 인구 5 - 9세,행정시구 인구 10 - 14세,행정시구 인구 15 - 19세,행정시구 인구 20 - 24세,행정시구 인구 25 - 29세,행정시구 인구 30 - 34세,행정시구 인구 35 - 39세,행정시구 인구 40 - 44세,행정시구 인구 45 - 49세,행정시구 인구 50 - 54세,행정시구 인구 55 - 59세,행정시구 인구 60 - 64세,행정시구 인구 65 - 69세,행정시구 인구 70 - 74세,행정시구 인구 75 - 79세,행정시구 인구 80 - 84세,행정시구 인구 85 - 89세,행정시구 인구 90 - 94세,행정시구 인구 95 - 99세,행정시구 인구 100+,시도별 소득월액,농산물이 주요품목
305,319,양촌시장,충청남도 논산시 양촌면 인천리 379-3,36.13838,127.2343,4423039021,4423039000,충청남도,논산시,양촌면,1,0,0,0,1,1,90,1,2,0,3,1,1,0,0,23,8,114320,6217,175,195,219,202,219,216,291,226,274,367,521,554,586,564,455,436,414,207,82,9,5,116675,3043,4189,4696,5110,6025,5362,4943,5821,6762,8641,9352,10351,11285,8722,6945,6102,5047,3003,966,217,93,1243114,0
1431,1981,덕풍전통시장,경기도 하남시 덕풍동 328-12,37.54154,127.2029,4145010800,4145056000,경기도,하남시,덕풍3동,0,1,0,185,1,1,16,2,26,1,8,62,4,8,1,753,99,2943810,25719,864,1286,1328,1240,1535,1558,1450,1952,2183,2253,2171,1985,2050,1385,1020,708,431,206,84,20,10,293452,13270,16924,13735,11404,15407,21000,21783,28326,27529,23894,21204,20864,20539,14566,9961,6217,3750,1957,789,209,124,1463080,1
318,332,부여중앙시장,,36.2808,126.9122,4476025029,4476025000,충청남도,부여군,부여읍,0,0,1,80,1,1,90,2,51,0,4,19,2,14,4,366,50,989043,20330,358,706,881,1023,1196,998,761,850,1150,1517,1807,1881,2070,1492,1272,986,744,427,158,37,16,65354,1082,1842,2102,2572,3104,2321,1935,2467,3044,4160,4874,5984,7184,5853,4967,4490,3900,2430,816,173,54,1203666,0
1167,1413,김제시장,전라북도 김제시 요촌동 415,35.80162,126.8837,4521010100,4521051000,전라북도,김제시,요촌동,0,0,1,65,1,1,121,2,66,0,5,18,4,6,2,317,58,407691,11241,297,458,472,560,652,658,481,642,708,851,925,951,965,755,650,469,365,257,101,15,9,82450,1653,2654,2931,3235,3828,3403,2835,3810,4380,5611,6469,7235,8084,6478,6066,5336,4382,2784,992,208,76,1189380,0
1679,2437,가남시장,경기도 여주시 가남읍 태평리 141-21,37.20255,127.546,4167025021,4167025000,경기도,여주시,가남읍,1,0,0,55,0,0,60,1,5,0,2,13,3,0,1,138,23,524900,15607,462,566,633,673,802,865,793,1019,1078,1182,1384,1422,1443,1098,721,631,465,251,84,25,10,111897,3072,4342,4589,5003,6195,5982,5097,6442,7438,8595,9665,10452,10550,8072,5432,4782,3461,1848,664,164,52,1362198,1
723,791,양문5일장,경기도 포천시 영중면 양문리 819-11,38.00188,127.2436,4165036021,4165036000,경기도,포천시,영중면,1,0,0,30,0,0,43,1,3,0,1,3,3,0,0,49,8,118310,4860,71,120,101,154,220,196,131,166,223,287,449,578,622,466,324,347,248,105,38,10,4,147274,3624,4955,5630,6613,8978,8863,7028,7548,8691,11781,13893,15283,15073,9320,6817,5648,4332,2143,755,221,78,1359818,1
724,792,일동5일장,경기도 포천시 일동면 기산리 94-36,37.95983,127.3198,4165037023,4165037000,경기도,포천시,일동면,1,0,0,30,0,0,43,2,10,0,3,7,2,0,2,136,15,324734,9403,172,330,370,320,483,456,371,479,557,647,702,888,1059,762,604,484,391,207,91,22,8,147274,3624,4955,5630,6613,8978,8863,7028,7548,8691,11781,13893,15283,15073,9320,6817,5648,4332,2143,755,221,78,1359818,1
726,794,운천5일장,경기도 포천시 영북면 운천리 513-9,38.09116,127.2724,4165039021,4165039000,경기도,포천시,영북면,1,0,0,30,0,0,43,2,5,0,3,6,1,1,0,102,11,150805,8465,310,337,228,211,429,543,511,493,422,469,584,716,908,588,518,497,402,175,72,35,17,147274,3624,4955,5630,6613,8978,8863,7028,7548,8691,11781,13893,15283,15073,9320,6817,5648,4332,2143,755,221,78,1359818,1
721,789,송우5일장,경기도 포천시 소흘읍 송우리 142-4,37.82686,127.1457,4165025021,4165025000,경기도,포천시,소흘읍,1,0,0,81,0,0,43,4,18,0,9,30,5,1,1,408,71,1267704,43812,1157,1690,2208,2687,3192,2613,1926,2353,2983,4237,4559,4374,3755,2045,1495,1075,806,447,145,53,12,147274,3624,4955,5630,6613,8978,8863,7028,7548,8691,11781,13893,15283,15073,9320,6817,5648,4332,2143,755,221,78,1359818,1
1437,1992,양곡종합상가,경상남도 창원시 성산구 신촌동 33-2,35.20085,128.6283,4812312300,4812357000,경상남도,창원시 성산구,웅남동,0,0,1,94,1,1,41,0,4,0,2,5,0,1,6,69,9,860857,7933,189,300,374,403,468,528,462,511,565,689,706,739,747,462,312,217,156,72,26,7,0,214570,6805,9752,10779,12332,15686,16660,14368,14968,16097,19642,22223,21209,15709,8067,4348,2529,1886,1052,361,77,20,1288860,1
720,788,신읍5일장,경기도 포천시 군내면 구읍리 717-3,37.89273,127.2023,4165031021,4165031000,경기도,포천시,군내면,1,0,0,220,1,1,43,2,43,0,3,27,2,7,0,338,52,211824,8661,310,304,267,314,412,529,565,544,533,605,753,889,872,602,394,322,245,141,52,7,1,147274,3624,4955,5630,6613,8978,8863,7028,7548,8691,11781,13893,15283,15073,9320,6817,5648,4332,2143,755,221,78,1359818,1
434,462,창녕상설시장,경상남도 창녕군 창녕읍 술정리 45-1,35.54007,128.4973,4874025037,4874025000,경상남도,창녕군,창녕읍,0,0,1,0,1,1,43,1,19,0,7,12,5,7,8,246,40,501765,16994,582,739,739,821,935,828,818,1039,1058,1286,1406,1459,1582,1106,872,712,550,337,106,14,5,61301,1383,1830,1897,2221,2515,2414,2263,2834,3192,3916,5000,5913,6818,5353,4270,3816,3181,1797,577,82,29,1223798,0
948,1064,유성전통시장,대전광역시 유성구 장대동 191-7,36.35772,127.3339,3020011700,3020054000,대전광역시,유성구,온천2동,1,0,0,,1,0,43,2,35,2,4,68,13,3,3,858,154,1254485,40180,1659,1862,1527,1667,4070,4373,3173,3269,2786,2808,2907,2989,2831,1682,1013,669,475,293,100,21,6,351047,15018,19928,19079,19076,24727,28017,26512,29557,29397,31048,29032,25042,20960,12651,7798,5655,4074,2337,890,192,57,1340568,1
1544,2215,금사제일상가시장,부산광역시 금정구 금사동 68-14,35.22045,129.1126,2641011100,2641055500,부산광역시,금정구,금사회동동,0,0,1,32,1,0,42,1,39,2,6,21,5,2,4,315,25,1147057,8243,120,157,156,204,390,453,396,427,452,535,684,925,1034,872,600,454,240,92,37,11,4,232666,5126,7907,8155,9555,16809,16500,11962,13266,14926,17258,19526,21092,21664,17100,12521,9151,5842,2915,959,233,199,1334215,0
1525,2169,장성시장,부산광역시 금정구 장전동155-17,35.23755,129.0856,2641010800,2641060000,부산광역시,금정구,장전제1동,0,0,1,34,1,0,43,2,42,2,5,66,6,11,3,1218,319,2806350,17902,335,576,568,609,3108,2550,1055,922,1116,1094,1133,1136,1100,895,682,463,317,175,46,11,11,232666,5126,7907,8155,9555,16809,16500,11962,13266,14926,17258,19526,21092,21664,17100,12521,9151,5842,2915,959,233,199,1334215,1
1495,2077,장림시장,부산광역시 사하구 장림동 792-7,35.08093,128.9677,2638010500,2638058000,부산광역시,사하구,장림제1동,0,0,1,37,1,1,48,3,27,1,5,21,11,1,1,268,33,1001500,11175,409,569,535,446,531,531,556,978,1017,996,900,882,922,716,546,328,209,77,21,4,2,311757,8191,11778,11883,13502,19724,20104,16530,20447,21529,24494,26933,27949,29123,22119,15550,10685,6736,2965,1086,267,162,1282615,1
1526,2170,장전상가시장,부산광역시 금정구 장전동421-7,35.23085,129.0861,2641010800,2641061000,부산광역시,금정구,장전제2동,0,0,1,45,1,0,47,5,56,2,9,72,7,15,3,1292,327,2806350,27319,1053,1593,1324,1138,1631,1815,1661,2106,2471,2229,1941,1837,1854,1505,1148,885,569,295,117,49,98,232666,5126,7907,8155,9555,16809,16500,11962,13266,14926,17258,19526,21092,21664,17100,12521,9151,5842,2915,959,233,199,1334215,1
1546,2217,서동시장,부산광역시 금정구서3동 302,35.21713,129.1025,2641011000,2641053000,부산광역시,금정구,서제3동,0,0,1,74,1,1,40,1,42,1,16,24,4,0,1,412,38,1215141.59,11489,152,202,240,326,531,712,533,589,582,776,1032,1306,1344,1090,857,599,398,154,47,9,10,232666,5126,7907,8155,9555,16809,16500,11962,13266,14926,17258,19526,21092,21664,17100,12521,9151,5842,2915,959,233,199,1334215,0
1545,2216,부곡상가시장,부산광역시 금정구 부곡동 304-1,35.22549,129.0915,2641010900,2641057000,부산광역시,금정구,부곡제1동,0,0,1,85,1,0,43,5,55,2,14,48,6,6,4,1238,279,1552522,8620,123,179,215,249,450,454,378,437,509,616,652,832,905,880,706,518,298,164,46,6,3,232666,5126,7907,8155,9555,16809,16500,11962,13266,14926,17258,19526,21092,21664,17100,12521,9151,5842,2915,959,233,199,1334215,1
1543,2214,구서오시게시장,부산광역시 금정구 구서동 87-9,35.24736,129.0898,2641010700,2641068000,부산광역시,금정구,구서제1동,0,0,1,106,1,1,40,2,32,1,13,37,2,5,1,509,119,1918484,19911,517,844,922,1003,1263,1337,1015,1249,1400,1618,1825,1841,1679,1229,864,621,419,180,65,12,8,232666,5126,7907,8155,9555,16809,16500,11962,13266,14926,17258,19526,21092,21664,17100,12521,9151,5842,2915,959,233,199,1334215,1
1548,2219,서동향토시장,부산광역시 금정구 구서동 194-1,35.2547,129.0896,2641010700,2641069000,부산광역시,금정구,구서제2동,0,0,1,153,1,0,41,2,33,2,6,31,3,2,3,380,73,1918484,33880,835,1408,1579,1742,2350,2140,1617,1856,2271,2688,3012,3119,3077,2211,1571,1064,751,400,150,30,9,232666,5126,7907,8155,9555,16809,16500,11962,13266,14926,17258,19526,21092,21664,17100,12521,9151,5842,2915,959,233,199,1334215,1
1547,2218,서동전통골목시장,부산광역시 금정구 서3동 338-7,35.21522,129.1025,2641011000,2641053000,부산광역시,금정구,서제3동,0,0,1,175,1,0,53,2,42,1,16,23,5,0,2,419,39,1215142,11489,152,202,240,326,531,712,533,589,582,776,1032,1306,1344,1090,857,599,398,154,47,9,10,232666,5126,7907,8155,9555,16809,16500,11962,13266,14926,17258,19526,21092,21664,17100,12521,9151,5842,2915,959,233,199,1334215,1
1486,2068,괴정골목시장,부산광역시 사하구 사하로 198,35.09933,128.9937,2638010100,2638053000,부산광역시,사하구,괴정제3동,0,0,1,147,1,1,48,2,39,3,13,46,4,1,0,528,66,1498244,12984,266,286,321,443,676,793,793,768,785,893,1049,1165,1421,1177,839,669,380,176,56,16,12,311757,8191,11778,11883,13502,19724,20104,16530,20447,21529,24494,26933,27949,29123,22119,15550,10685,6736,2965,1086,267,162,1282615,1
1494,2076,장림골목시장,부산광역시 사하구 장림동 641-268,35.08047,128.9677,2638010500,2638058000,부산광역시,사하구,장림제1동,0,0,1,91,1,1,44,3,27,1,5,21,11,1,1,273,31,1001500,11175,409,569,535,446,531,531,556,978,1017,996,900,882,922,716,546,328,209,77,21,4,2,311757,8191,11778,11883,13502,19724,20104,16530,20447,21529,24494,26933,27949,29123,22119,15550,10685,6736,2965,1086,267,162,1282615,1
1350,1787,영동전통시장,서울특별시 강남구 논현동 140,37.50999,127.0238,1168010800,1168052100,서울특별시,강남구,논현1동,0,0,1,124,1,1,10,4,238,6,2,150,4,28,2,2275,569,12339444,23012,345,364,373,511,1441,3199,3155,2659,2121,1752,1516,1310,1301,1008,820,556,330,158,51,22,20,539231,13621,23145,29138,29996,33282,40658,39296,42542,47098,52168,44682,35668,32978,26445,20595,13572,7836,3977,1731,507,296,1670051,1
1107,1313,중곡제일전통시장(중곡제일시장),서울특별시 광진구 중곡동 221-6번지,37.56388,127.0818,1121510100,1121574000,서울특별시,광진구,중곡제1동,0,0,1,135,1,1,51,2,38,3,10,76,8,5,3,1020,174,3898218,15792,399,375,333,431,1026,1803,1623,1367,1054,1139,1280,1252,1229,855,680,494,276,111,45,11,9,346682,8351,11221,12237,13694,26193,36747,29113,26870,24874,27608,28122,26419,24922,17538,12852,9576,6105,2745,990,287,218,1368980,1
761,842,학성종합시장,울산광역시 중구 학성동 467-1,35.55442,129.3321,3111010100,3111051000,울산광역시,중구,학성동,0,0,1,19,1,0,43,0,38,0,4,38,6,9,11,574,111,1062640,10414,197,268,311,345,496,594,518,562,610,816,857,1057,1129,914,699,548,308,123,43,13,6,217595,6690,9948,9838,10280,13001,13815,11717,14654,16186,18072,20628,20775,18760,13096,8479,5803,3573,1590,514,116,60,1315994,0
734,802,신울산종합시장,울산광역시 중구 반구동 100-1,35.56124,129.3374,3111011800,3111053000,울산광역시,중구,반구2동,0,0,1,30,1,1,43,2,33,0,13,50,7,2,2,676,73,1218392,8842,188,226,230,365,581,738,546,483,468,681,893,893,846,657,449,316,173,77,26,4,2,217595,6690,9948,9838,10280,13001,13815,11717,14654,16186,18072,20628,20775,18760,13096,8479,5803,3573,1590,514,116,60,1315994,1
757,838,선우시장,울산광역시 중구 남외동 385-3,35.57119,129.3421,3111011500,3111062000,울산광역시,중구,병영1동,0,0,1,84,1,0,43,2,29,0,11,35,2,3,2,454,66,1214590,22544,493,1002,1042,1285,1532,1432,997,1313,1514,1832,2378,2403,2036,1391,844,540,317,130,49,9,5,217595,6690,9948,9838,10280,13001,13815,11717,14654,16186,18072,20628,20775,18760,13096,8479,5803,3573,1590,514,116,60,1315994,1
737,805,구역전시장,울산광역시 중구 학성동 434-7,35.55702,129.3285,3111010100,3111051000,울산광역시,중구,학성동,0,0,1,167,1,1,43,1,50,0,6,36,3,16,15,640,156,1062640,10414,197,268,311,345,496,594,518,562,610,816,857,1057,1129,914,699,548,308,123,43,13,6,217595,6690,9948,9838,10280,13001,13815,11717,14654,16186,18072,20628,20775,18760,13096,8479,5803,3573,1590,514,116,60,1315994,1
735,803,학성새벽시장,울산광역시 중구 학성동 359-2,35.55655,129.3327,3111010100,3111051000,울산광역시,중구,학성동,0,0,1,197,1,1,43,1,39,0,6,36,5,9,6,565,87,1062640,10414,197,268,311,345,496,594,518,562,610,816,857,1057,1129,914,699,548,308,123,43,13,6,217595,6690,9948,9838,10280,13001,13815,11717,14654,16186,18072,20628,20775,18760,13096,8479,5803,3573,1590,514,116,60,1315994,1
762,843,태화종합시장,울산광역시 중구 태화동 36-13,35.5542,129.3074,3111011100,3111060000,울산광역시,중구,태화동,0,1,0,221,1,1,43,1,27,0,3,37,4,4,4,535,95,1177246,33809,1382,2086,1964,1695,1914,1985,1778,2612,3019,2960,2954,2920,2561,1697,1007,652,388,152,63,18,2,217595,6690,9948,9838,10280,13001,13815,11717,14654,16186,18072,20628,20775,18760,13096,8479,5803,3573,1590,514,116,60,1315994,1
330,344,갈산정기시장,,36.603,126.5512,4480038021,4480038000,충청남도,홍성군,갈산면,1,0,0,18,1,1,43,1,3,0,3,2,3,1,4,37,9,146548,3533,28,46,77,68,110,92,89,115,103,169,204,377,424,425,326,294,325,180,63,13,5,100102,3260,4456,4810,4796,5160,4570,4520,5961,6646,7834,7676,8249,8159,6600,5472,4586,4023,2382,710,171,61,1302779,0
293,307,현대상가시장,,36.34891,126.5969,4418010100,4418051500,충청남도,보령시,대천1동,0,1,0,53,1,0,43,2,26,0,5,43,2,8,1,638,85,696758,14454,435,645,685,777,904,774,694,872,1006,1276,1212,1251,1139,921,740,502,380,167,54,12,8,100229,2523,3614,3976,4319,5077,4451,4074,5387,6223,7722,8112,9100,9440,7647,6279,5000,4051,2238,759,172,65,1331940,0
328,342,청양전통시장,,36.45086,126.8021,4479025021,4479025000,충청남도,청양군,청양읍,0,1,0,135,1,1,43,2,22,0,3,12,3,7,3,166,32,563283,10023,256,391,415,582,729,523,424,490,565,689,806,881,871,681,554,435,388,229,91,16,7,30948,508,761,860,1196,1530,1127,983,1104,1287,1833,2306,3006,3388,2771,2367,2147,2028,1276,385,66,19,1226623,0
1680,2438,율촌시장,경기도 여주시 대신면 율촌리 380-4,37.37462,127.5859,4167035037,4167035000,경기도,여주시,대신면,1,0,0,0,0,0,21,0,2,0,3,2,1,0,2,31,10,210526,7075,79,149,191,222,349,279,216,233,295,397,561,771,875,751,500,494,402,215,74,17,5,111897,3072,4342,4589,5003,6195,5982,5097,6442,7438,8595,9665,10452,10550,8072,5432,4782,3461,1848,664,164,52,1362198,1
1594,2308,남성시장,서울특별시 동작구 사당동 88-3,37.48816,126.9816,1159010700,1159063000,서울특별시,동작구,사당제2동,0,0,1,140,0,0,61,6,60,2,10,83,5,9,4,1333,305,5262427,27238,871,924,742,912,1531,2150,2262,2225,1981,2067,2055,2136,2163,1705,1416,1027,602,301,99,36,33,391220,10942,13622,13111,14710,27603,38942,31789,30307,28722,30190,29702,28641,28011,21151,17066,12689,8108,3787,1432,382,313,1403742,1
947,1063,송강전통시장,대전광역시 유성구 송강동 49-10,36.43513,127.3867,3020014700,3020058000,대전광역시,유성구,구즉동,0,0,1,,1,0,21,3,16,0,6,21,1,2,0,297,48,847494,27835,1059,1493,1482,1595,2047,2200,2006,2143,2241,2509,2583,2074,1533,957,631,539,411,236,79,14,3,351047,15018,19928,19079,19076,24727,28017,26512,29557,29397,31048,29032,25042,20960,12651,7798,5655,4074,2337,890,192,57,1340568,1
758,839,병영시장,울산광역시 중구 남외동 257-1,35.57057,129.3463,3111011500,3111062000,울산광역시,중구,병영1동,0,0,1,51,1,0,21,1,27,0,7,30,1,1,2,421,55,1214590,22544,493,1002,1042,1285,1532,1432,997,1313,1514,1832,2378,2403,2036,1391,844,540,317,130,49,9,5,217595,6690,9948,9838,10280,13001,13815,11717,14654,16186,18072,20628,20775,18760,13096,8479,5803,3573,1590,514,116,60,1315994,1
738,806,서동시장,울산광역시 중구 서동 39-3,35.58205,129.3466,3111011400,3111063000,울산광역시,중구,병영2동,0,0,1,79,1,0,21,0,7,0,4,14,4,2,3,143,37,932600,20522,788,1240,1059,869,1077,1195,1141,1710,1766,1618,1772,1921,1764,1085,647,420,286,121,35,6,2,217595,6690,9948,9838,10280,13001,13815,11717,14654,16186,18072,20628,20775,18760,13096,8479,5803,3573,1590,514,116,60,1315994,1
739,807,옥골시장,울산광역시 중구 옥교동 124-21,35.55543,129.3236,3111010500,3111058500,울산광역시,중구,중앙동,0,0,1,79,1,1,21,1,59,0,5,33,5,15,15,713,174,1907778,13296,214,225,278,382,703,889,682,636,721,900,1242,1382,1586,1267,863,652,389,194,52,16,23,217595,6690,9948,9838,10280,13001,13815,11717,14654,16186,18072,20628,20775,18760,13096,8479,5803,3573,1590,514,116,60,1315994,1
753,834,반구시장,울산광역시 중구 반구동 448-9,35.55839,129.3434,3111011800,3111052000,울산광역시,중구,반구1동,0,0,1,153,1,1,21,0,32,0,5,40,7,2,2,480,57,1218392,17313,604,770,688,625,983,1198,1129,1305,1307,1344,1671,1772,1498,1036,614,385,247,91,37,7,2,217595,6690,9948,9838,10280,13001,13815,11717,14654,16186,18072,20628,20775,18760,13096,8479,5803,3573,1590,514,116,60,1315994,0
755,836,울산시장,울산광역시 중구 학산동 47-10,35.55547,129.3284,3111010200,3111058500,울산광역시,중구,중앙동,0,0,1,297,1,1,21,1,53,0,5,39,4,15,17,671,173,1329894,13296,214,225,278,382,703,889,682,636,721,900,1242,1382,1586,1267,863,652,389,194,52,16,23,217595,6690,9948,9838,10280,13001,13815,11717,14654,16186,18072,20628,20775,18760,13096,8479,5803,3573,1590,514,116,60,1315994,0
1388,1854,지산목련시장(지산종합시장),대구광역시 수성구 지산동 1199-10,35.8208,128.6319,2726011200,2726065200,대구광역시,수성구,지산2동,0,0,1,33,1,1,,2,48,2,7,25,5,2,3,556,79,1535758,19171,405,701,816,1040,1320,1243,888,1053,1185,1653,1856,1746,1669,1257,836,599,502,303,83,14,2,424314,10360,19424,24344,27151,30007,25396,18636,24190,32159,40707,40534,34617,30225,21907,16214,12559,9068,4875,1515,326,100,1405080,1
1820,2699,신월3동 골목시장,서울특별시 양천구 신월동 181-1,37.53365,126.8256,1147010300,1147058000,서울특별시,양천구,신월3동,0,0,1,17,0,0,,1,39,0,15,58,10,5,2,478,65,2872905,15751,392,506,490,652,883,1159,1007,1027,1040,1207,1452,1513,1474,1056,807,556,326,134,49,9,12,454251,11923,19629,24815,26057,28947,30827,26399,31421,36236,42757,40430,36065,33204,24347,17183,11410,7127,3594,1341,352,187,1427546,1
490,522,강북북부골목시장,서울특별시 강북구 번동 411-82,37.6359,127.03,1130510200,1130559500,서울특별시,강북구,번1동,0,0,1,21,0,0,,3,73,1,7,98,8,6,4,1550,220,2961114,19059,312,381,444,653,1381,1909,1456,1355,1365,1579,1561,1572,1533,1087,998,769,443,175,59,19,8,308055,6615,9099,10048,11979,19671,23273,18553,20204,21169,25549,26491,26151,25940,19952,16545,13542,8102,3414,1173,336,249,1298784,0
1822,2701,신월7동 골목시장,서울특별시 양천구 신월동 921-1,37.52271,126.8331,1147010300,1147061100,서울특별시,양천구,신월7동,0,0,1,30,0,0,,0,35,0,8,51,6,1,3,558,75,2872905,20519,469,591,608,780,1210,1448,1237,1407,1423,1563,1685,1920,1895,1555,1046,779,550,253,80,16,4,454251,11923,19629,24815,26057,28947,30827,26399,31421,36236,42757,40430,36065,33204,24347,17183,11410,7127,3594,1341,352,187,1427546,1
1823,2702,신정1동 골목시장,서울특별시 양천구 신정동 1029-1,37.52063,126.8538,1147010100,1147062000,서울특별시,양천구,신정1동,0,0,1,43,0,0,,4,60,2,12,65,5,5,4,803,156,4300720,20949,552,1302,1630,1429,1340,1131,785,1293,1951,2159,1936,1606,1198,989,666,427,285,166,72,25,7,454251,11923,19629,24815,26057,28947,30827,26399,31421,36236,42757,40430,36065,33204,24347,17183,11410,7127,3594,1341,352,187,1427546,1
491,523,방천골목시장,서울특별시 강북구 미아동 52-59,37.61274,127.0329,1130510100,1130554500,서울특별시,강북구,송중동,0,0,1,55,0,0,,3,57,1,12,67,7,4,1,1052,158,3435852,30353,716,843,970,1091,1908,2361,2006,2116,2138,2464,2574,2626,2554,2015,1519,1310,704,286,88,34,30,308055,6615,9099,10048,11979,19671,23273,18553,20204,21169,25549,26491,26151,25940,19952,16545,13542,8102,3414,1173,336,249,1298784,0
1435,1987,진흥종합시장,인천광역시 부평구 부평동 252-52,37.49695,126.7257,2823710100,2823754000,인천광역시,부평구,부평4동,0,0,1,62,1,1,42,1,79,3,11,159,3,4,4,1720,403,2963158,36696,1256,1287,1140,1270,2259,3625,3250,3295,2839,2812,3077,3055,2659,1697,1266,883,607,287,92,26,14,494962,13968,18937,20288,22922,31764,38421,32231,35205,36201,41215,44709,45445,40232,25776,18120,13267,9161,4779,1700,418,203,1337842,1
1324,1743,흥국상가,전라남도 여수시 신기동 59-1,34.76201,127.6693,4613013300,4613079000,전라남도,여수시,시전동,0,0,1,268,0,0,2,1,39,0,3,35,4,3,2,708,118,622593,37425,2160,2506,2246,2294,2470,2179,2434,3244,3153,3382,3333,2786,2052,1259,804,465,378,175,90,13,2,280242,8793,12149,12448,13964,17595,16124,13516,17510,19365,22550,24216,24305,23120,17672,14242,10292,7103,3566,1302,305,105,1292967,0
1376,1828,모래내시장(전주),전라북도 전주시 덕진구 인후동2가 202-77,35.83344,127.1437,4511310400,4511355000,전라북도,전주시 덕진구,인후2동,0,0,1,224,1,1,51,0,43,0,11,27,1,6,0,398,74,619322,11459,251,308,316,436,754,812,650,668,692,792,955,932,974,923,745,625,396,170,41,13,6,317714,11805,17566,17742,17802,22431,21036,18420,23497,25798,27848,26100,22847,20167,14279,11679,8483,5938,3003,990,204,79,1280338,1
1821,2700,신월6동 골목시장,서울특별시 양천구 신월동 575-8,37.51772,126.8426,1147010300,1147061000,서울특별시,양천구,신월6동,0,0,1,61,0,0,,1,39,1,16,52,6,1,3,548,92,2872905,13748,736,710,576,665,756,848,1163,1423,1068,1090,1076,957,951,696,460,308,151,63,32,8,11,454251,11923,19629,24815,26057,28947,30827,26399,31421,36236,42757,40430,36065,33204,24347,17183,11410,7127,3594,1341,352,187,1427546,1
1824,2703,신정2동 골목시장,서울특별시 양천구 신정동 127-19,37.52095,126.8766,1147010100,1147063000,서울특별시,양천구,신정2동,0,0,1,66,0,0,,4,63,2,13,59,2,13,0,840,202,4300720,20047,344,971,1473,1494,1411,1180,759,1052,1653,2160,1964,1657,1367,895,644,470,301,163,55,18,16,454251,11923,19629,24815,26057,28947,30827,26399,31421,36236,42757,40430,36065,33204,24347,17183,11410,7127,3594,1341,352,187,1427546,1
1595,2312,상도전통시장,서울특별시 동작구 상도동 464-33,37.49968,126.9515,1159010200,1159053000,서울특별시,동작구,상도제1동,0,0,1,86,1,0,,5,19,2,11,68,2,4,5,552,136,4164788,45139,1262,1657,1577,1626,4858,4986,3120,3187,3201,3368,3259,3094,3075,2203,1761,1342,875,430,170,49,39,391220,10942,13622,13111,14710,27603,38942,31789,30307,28722,30190,29702,28641,28011,21151,17066,12689,8108,3787,1432,382,313,1403742,1
325,339,한산시장,,36.0848,126.805,4477034021,4477034000,충청남도,서천군,한산면,1,0,0,16,1,1,95,1,3,0,3,1,1,2,2,32,7,160796,2540,22,41,37,73,72,66,40,70,89,136,176,196,276,246,252,264,261,154,57,9,3,51866,913,1393,1550,1937,2086,1791,1510,1955,2494,3350,3872,4631,5396,4836,4292,3745,3278,1962,701,130,44,1371423,0
324,338,판교시장,,36.15485,126.6896,4477038029,4477038000,충청남도,서천군,판교면,1,0,0,18,1,1,90,1,1,0,2,0,1,0,9,14,0,41388,2135,15,24,30,38,47,44,40,51,53,93,135,206,256,280,244,181,210,132,43,10,3,51866,913,1393,1550,1937,2086,1791,1510,1955,2494,3350,3872,4631,5396,4836,4292,3745,3278,1962,701,130,44,1371423,0
329,343,청양특화시장,,36.4489,126.7988,4479025021,4479025000,충청남도,청양군,청양읍,1,0,0,18,1,1,18,2,19,0,5,12,3,7,2,164,32,563283,10023,256,391,415,582,729,523,424,490,565,689,806,881,871,681,554,435,388,229,91,16,7,30948,508,761,860,1196,1530,1127,983,1104,1287,1833,2306,3006,3388,2771,2367,2147,2028,1276,385,66,19,1226623,0
326,340,비인시장,,36.13942,126.6038,4477040021,4477040000,충청남도,서천군,비인면,1,0,0,48,1,1,95,1,1,0,2,0,1,0,6,13,1,51753,2950,21,30,38,62,104,97,76,74,87,154,220,320,370,332,311,252,205,130,48,15,4,51866,913,1393,1550,1937,2086,1791,1510,1955,2494,3350,3872,4631,5396,4836,4292,3745,3278,1962,701,130,44,1371423,0
289,303,동부시장,,36.34943,126.5968,4418010100,4418051500,충청남도,보령시,대천1동,0,1,0,63,1,1,61,2,25,0,5,40,3,8,1,629,81,696758,14454,435,645,685,777,904,774,694,872,1006,1276,1212,1251,1139,921,740,502,380,167,54,12,8,100229,2523,3614,3976,4319,5077,4451,4074,5387,6223,7722,8112,9100,9440,7647,6279,5000,4051,2238,759,172,65,1331940,0
303,317,강경젓갈시장,,36.15756,127.0098,4423025030,4423025000,충청남도,논산시,강경읍,0,0,1,93,1,0,32,1,21,0,3,4,2,2,4,113,15,330667,8375,122,220,304,368,433,287,261,307,418,564,686,805,930,743,648,521,408,227,83,24,16,116675,3043,4189,4696,5110,6025,5362,4943,5821,6762,8641,9352,10351,11285,8722,6945,6102,5047,3003,966,217,93,1243114,0
323,337,장항전통시장,,36.01556,126.6946,4477025024,4477025000,충청남도,서천군,장항읍,0,0,1,107,1,1,11,1,20,0,3,17,2,1,3,159,27,255190,11126,225,332,386,477,572,492,393,478,651,894,933,996,1084,903,799,668,501,237,88,12,5,51866,913,1393,1550,1937,2086,1791,1510,1955,2494,3350,3872,4631,5396,4836,4292,3745,3278,1962,701,130,44,1371423,0
296,310,온양온천시장,,36.78358,127.0021,4420010100,4420057000,충청남도,아산시,온양1동,0,1,0,482,1,1,13,0,54,1,8,60,1,5,4,819,113,1095985,9468,491,410,346,386,459,620,788,962,777,742,669,660,644,474,372,299,207,93,47,9,13,316129,13715,19231,18389,16071,17679,18912,20292,28128,28967,27334,24613,21676,18767,13118,10052,8037,6260,3448,1091,235,114,1359634,0
313,327,중부시장,,36.10454,127.491,4471025024,4471025000,충청남도,금산군,금산읍,1,0,0,24,1,1,32,2,29,0,8,22,2,10,2,332,47,477734,22858,641,1032,1227,1237,1259,921,847,1317,1631,1925,1909,1850,1862,1549,1331,1036,753,378,110,28,15,51413,1016,1549,2121,2168,2221,1799,1599,2166,2687,3529,4223,4864,5396,4442,3612,3233,2715,1487,447,108,31,1238749,0
315,329,금산인삼쇼핑센터,,36.10151,127.4989,4471025022,4471025000,충청남도,금산군,금산읍,0,0,1,52,1,1,11,0,23,0,4,12,3,3,3,200,28,510071,22858,641,1032,1227,1237,1259,921,847,1317,1631,1925,1909,1850,1862,1549,1331,1036,753,378,110,28,15,51413,1016,1549,2121,2168,2221,1799,1599,2166,2687,3529,4223,4864,5396,4442,3612,3233,2715,1487,447,108,31,1238749,0
316,330,금산인삼전통시장,,36.10057,127.4924,4471025022,4471025000,충청남도,금산군,금산읍,0,0,1,75,1,1,10,1,26,0,6,15,3,3,4,254,35,510071,22858,641,1032,1227,1237,1259,921,847,1317,1631,1925,1909,1850,1862,1549,1331,1036,753,378,110,28,15,51413,1016,1549,2121,2168,2221,1799,1599,2166,2687,3529,4223,4864,5396,4442,3612,3233,2715,1487,447,108,31,1238749,0
309,323,금산수삼센타,,36.1001,127.4965,4471025022,4471025000,충청남도,금산군,금산읍,1,0,0,333,1,1,23,1,26,0,5,13,4,3,4,219,31,510071,22858,641,1032,1227,1237,1259,921,847,1317,1631,1925,1909,1850,1862,1549,1331,1036,753,378,110,28,15,51413,1016,1549,2121,2168,2221,1799,1599,2166,2687,3529,4223,4864,5396,4442,3612,3233,2715,1487,447,108,31,1238749,0
488,520,장미원골목시장,서울특별시 강북구 수유동 313-14,37.64465,127.0145,1130510300,1130566000,서울특별시,강북구,인수동,0,0,1,103,0,0,,1,35,2,8,62,3,7,4,767,158,2943555,31319,638,927,1037,1106,1881,2223,1817,2030,2095,2412,2647,2780,2796,2171,1849,1366,957,378,149,41,19,308055,6615,9099,10048,11979,19671,23273,18553,20204,21169,25549,26491,26151,25940,19952,16545,13542,8102,3414,1173,336,249,1298784,0
693,758,사당1동먹자골목상점가,서울특별시 동작구 사당동 1032-31,37.47843,126.9806,1159010700,1159053000,서울특별시,동작구,상도제1동,0,0,1,109,0,0,,7,69,4,7,88,5,6,0,1417,267,5262427,45139,1262,1657,1577,1626,4858,4986,3120,3187,3201,3368,3259,3094,3075,2203,1761,1342,875,430,170,49,39,391220,10942,13622,13111,14710,27603,38942,31789,30307,28722,30190,29702,28641,28011,21151,17066,12689,8108,3787,1432,382,313,1403742,0
339,353,예산상설시장,,36.67723,126.8495,4481025021,4481025000,충청남도,예산군,예산읍,1,0,0,120,1,1,40,0,22,0,1,8,3,5,2,130,21,390645,33401,790,1338,1548,1762,2032,1509,1266,1721,2137,2843,2887,3048,2982,2383,1848,1426,1067,591,173,38,12,78084,1423,2208,2616,3040,3630,3200,2771,3359,4023,5500,6265,7412,8010,6733,5558,4893,4149,2418,686,150,40,1257796,0
290,304,웅천시장,,36.23203,126.6004,4418025021,4418025000,충청남도,보령시,웅천읍,1,0,0,132,1,1,93,1,4,0,3,2,2,0,4,60,14,158948,6229,49,93,124,190,213,203,168,181,249,355,515,616,833,670,575,476,381,222,94,19,3,100229,2523,3614,3976,4319,5077,4451,4074,5387,6223,7722,8112,9100,9440,7647,6279,5000,4051,2238,759,172,65,1331940,0
1584,2286,동소문스카이상가,서울특별시 성북구 돈암동 609-1 한신한진아파트,37.59291,127.0094,1129010300,1129059000,서울특별시,성북구,돈암제2동,0,0,1,145,1,1,,2,60,3,17,75,3,47,3,1215,327,3052400,24589,754,1267,1471,1402,1569,1452,1346,1698,2002,2512,2270,1808,1614,1110,807,649,451,268,110,19,10,437153,12220,16602,17340,19805,32361,34611,28291,31552,31950,37889,36742,32639,31538,23359,18564,15004,9746,4483,1658,415,384,1386843,1
308,322,당진전통시장,,36.89046,126.6294,4427010100,4427051000,충청남도,당진시,당진1동,1,0,0,262,1,1,47,5,32,0,5,50,1,6,0,537,82,1112647,24406,1121,1440,1374,1145,1407,1999,2144,2355,2177,2059,1810,1575,1238,832,660,485,324,184,61,15,1,166249,6621,8940,8366,7321,7814,8261,9812,13015,13149,13521,12936,12998,12164,8843,7363,5943,5098,2867,932,215,70,1377370,0
338,352,역전시장,,36.68704,126.8299,4481025025,4481025000,충청남도,예산군,예산읍,1,0,0,37,1,1,66,2,26,0,4,17,4,0,2,267,36,279315,33401,790,1338,1548,1762,2032,1509,1266,1721,2137,2843,2887,3048,2982,2383,1848,1426,1067,591,173,38,12,78084,1423,2208,2616,3040,3630,3200,2771,3359,4023,5500,6265,7412,8010,6733,5558,4893,4149,2418,686,150,40,1257796,0
302,316,강경대흥시장,,36.15598,127.0137,4423025029,4423025000,충청남도,논산시,강경읍,0,0,1,110,1,1,66,1,22,0,6,5,2,2,4,114,15,621973,8375,122,220,304,368,433,287,261,307,418,564,686,805,930,743,648,521,408,227,83,24,16,116675,3043,4189,4696,5110,6025,5362,4943,5821,6762,8641,9352,10351,11285,8722,6945,6102,5047,3003,966,217,93,1243114,0
1913,2877,정읍산외한우마을상점가,전라북도 정읍시 산외면 평사리 461-8,35.62131,127.0393,4518044022,4518044000,전라북도,정읍시,산외면,0,0,1,40,1,1,,1,0,0,2,0,2,1,8,18,2,38371,2128,24,32,41,49,61,59,45,57,56,142,174,185,245,206,194,231,182,108,29,8,0,108508,2479,3891,4426,5238,5976,4628,3897,4970,6443,8381,9039,9355,9527,7396,7130,6273,5120,3064,960,202,113,1201742,0
340,354,예산시장,,36.67723,126.8495,4481025021,4481025000,충청남도,예산군,예산읍,1,0,0,11,1,1,95,0,22,0,1,8,3,5,2,130,21,390645,33401,790,1338,1548,1762,2032,1509,1266,1721,2137,2843,2887,3048,2982,2383,1848,1426,1067,591,173,38,12,78084,1423,2208,2616,3040,3630,3200,2771,3359,4023,5500,6265,7412,8010,6733,5558,4893,4149,2418,686,150,40,1257796,0
335,349,광시시장,,36.54896,126.7744,4481033021,4481033000,충청남도,예산군,광시면,1,0,0,13,1,1,96,1,2,0,2,2,1,0,3,35,8,100390,3184,27,56,54,84,93,76,63,73,113,171,245,304,375,311,309,280,322,172,48,7,1,78084,1423,2208,2616,3040,3630,3200,2771,3359,4023,5500,6265,7412,8010,6733,5558,4893,4149,2418,686,150,40,1257796,0
307,321,연산시장,,36.21626,127.2161,4423036021,4423036000,충청남도,논산시,연산면,1,0,0,17,1,1,110,0,2,0,2,2,1,0,0,41,7,145400,6137,63,131,165,164,190,189,167,178,212,357,518,695,829,649,504,442,374,212,77,13,8,116675,3043,4189,4696,5110,6025,5362,4943,5821,6762,8641,9352,10351,11285,8722,6945,6102,5047,3003,966,217,93,1243114,0
1909,2873,그린상점가,전라북도 익산시 신동 789-6,35.96282,126.9582,4514012100,4514065600,전라북도,익산시,신동,0,0,1,81,1,1,,0,27,0,6,34,11,1,1,365,83,486193,15622,290,339,410,714,2519,1544,754,724,729,969,1129,1164,1139,889,804,656,450,259,101,28,11,282276,7536,11630,12853,15055,19528,16674,12688,15779,18675,23260,24685,24311,23435,17049,13837,10684,7891,4615,1646,339,106,1243771,0
291,305,중앙시장,,36.3506,126.5935,4418010100,4418052500,충청남도,보령시,대천2동,0,1,0,128,1,1,61,2,25,0,3,30,3,8,1,368,63,696758,6931,210,282,331,320,350,384,346,412,512,607,579,589,533,447,348,297,235,112,26,7,4,100229,2523,3614,3976,4319,5077,4451,4074,5387,6223,7722,8112,9100,9440,7647,6279,5000,4051,2238,759,172,65,1331940,0
333,347,홍성전통시장,,36.60212,126.668,4480025022,4480025000,충청남도,홍성군,홍성읍,0,1,0,139,1,1,72,2,40,0,6,27,6,5,5,380,55,440078,38232,928,1530,2005,2336,2754,2120,1575,2008,2623,3484,3470,3313,2941,2223,1798,1302,1026,561,174,43,18,100102,3260,4456,4810,4796,5160,4570,4520,5961,6646,7834,7676,8249,8159,6600,5472,4586,4023,2382,710,171,61,1302779,0
292,306,한내시장,,36.34949,126.5954,4418010100,4418051500,충청남도,보령시,대천1동,0,1,0,240,1,1,61,2,26,0,5,39,3,8,1,585,80,696758,14454,435,645,685,777,904,774,694,872,1006,1276,1212,1251,1139,921,740,502,380,167,54,12,8,100229,2523,3614,3976,4319,5077,4451,4074,5387,6223,7722,8112,9100,9440,7647,6279,5000,4051,2238,759,172,65,1331940,0
1385,1844,부여 새시장,충청남도 부여군 부여읍 구아리 395-7,36.28099,126.9096,4476025029,4476025000,충청남도,부여군,부여읍,0,0,1,75,0,0,105,2,49,0,4,18,2,14,3,343,49,989043,20330,358,706,881,1023,1196,998,761,850,1150,1517,1807,1881,2070,1492,1272,986,744,427,158,37,16,65354,1082,1842,2102,2572,3104,2321,1935,2467,3044,4160,4874,5984,7184,5853,4967,4490,3900,2430,816,173,54,1203666,0
317,331,부여시장,,36.28149,126.9076,4476025029,4476025000,충청남도,부여군,부여읍,0,1,0,86,1,1,105,2,47,0,4,16,2,9,3,332,43,989043,20330,358,706,881,1023,1196,998,761,850,1150,1517,1807,1881,2070,1492,1272,986,744,427,158,37,16,65354,1082,1842,2102,2572,3104,2321,1935,2467,3044,4160,4874,5984,7184,5853,4967,4490,3900,2430,816,173,54,1203666,0
294,308,대천항수산물시장,,36.32642,126.5089,4418011000,4418056500,충청남도,보령시,대천5동,0,0,1,140,1,1,,0,15,0,2,8,0,0,2,70,5,547569,6494,103,136,170,225,250,273,230,327,327,450,571,706,785,616,495,362,272,133,50,10,3,100229,2523,3614,3976,4319,5077,4451,4074,5387,6223,7722,8112,9100,9440,7647,6279,5000,4051,2238,759,172,65,1331940,0
1176,1427,증평장뜰시장,충청북도 증평군 증평읍 중동리 97-1,36.78336,127.5829,4374525023,4374525000,충청북도,증평군,증평읍,0,0,1,90,1,1,51,3,41,0,6,28,2,2,3,428,58,1450833,34917,1407,1796,1691,1581,2062,2329,2111,2541,2620,2773,2926,2754,2655,1847,1252,1134,833,450,119,27,9,36807,1424,1818,1721,1627,2122,2394,2173,2580,2688,2902,3089,2925,2928,2062,1403,1274,972,519,144,32,10,1317649,0
1621,2343,마산어시장,경상남도 창원시 마산합포구 동성동 314,35.20376,128.579,4812511100,4812563000,경상남도,창원시 마산합포구,오동동,0,0,1,1179,1,1,241,2,92,0,2,33,3,10,10,814,120,1738933,19688,422,662,569,582,910,1084,954,1372,1446,1578,1536,1730,2060,1614,1194,948,604,297,98,22,6,175716,5079,7560,6827,6937,9660,9262,8536,11949,12535,13116,14426,15100,16831,13197,9675,6894,4692,2365,832,174,69,1288860,0
1870,2797,북평민속시장,강원도 동해시 구미동 486-2,37.48247,129.126,4217011200,4217060000,강원도,동해시,북평동,1,0,0,800,1,1,225,1,12,0,2,9,2,0,1,94,13,293059,12654,549,615,552,608,752,567,612,915,956,1110,1164,1007,1037,702,474,453,328,183,53,15,2,90593,2660,3965,4185,4632,5136,4283,3731,5502,6582,7987,8107,7531,7999,5906,4271,3811,2510,1240,406,118,31,1281849,1
1266,1636,중앙시장,경상남도 진주시 대안동 8-600,35.19392,128.0849,4817010900,4817056500,경상남도,진주시,중앙동,0,0,1,845,1,1,137,1,97,0,8,46,3,13,4,835,167,4235921,11284,128,203,341,343,552,546,398,465,607,787,927,1050,1254,1152,989,737,488,209,70,20,18,348096,11575,16821,17309,17916,23331,21812,18811,22837,25276,29022,29982,27809,26563,19205,14459,11106,8113,4301,1420,334,94,1258146,1
203,206,성주시장,"경상북도 성주군 성주읍 경산리 718, 718-357, 718-358",35.91503,128.2855,4784025021,4784025000,경상북도,성주군,성주읍,0,0,1,45,1,1,134,3,15,0,4,12,5,4,2,192,32,678943,13737,413,520,630,659,766,718,589,770,936,1111,1246,1226,1195,917,726,536,427,250,82,16,4,43414,977,933,1053,1204,1767,1767,1536,1754,2056,2703,3674,4847,5172,4136,3320,2516,2173,1309,415,74,28,1217616,1
336,350,덕산시장,,36.70429,126.6677,4481036021,4481036000,충청남도,예산군,덕산면,1,0,0,50,1,1,134,1,5,0,1,4,2,0,0,107,24,319550,6677,97,154,200,194,251,231,206,243,326,425,603,728,775,644,509,422,345,232,70,18,4,78084,1423,2208,2616,3040,3630,3200,2771,3359,4023,5500,6265,7412,8010,6733,5558,4893,4149,2418,686,150,40,1257796,0
412,432,함열시장,전라북도 익산시 함열읍 와리 544-34,36.08083,126.9585,4514025021,4514025000,전라북도,익산시,함열읍,0,1,0,34,1,1,119,2,7,0,4,4,2,0,1,87,13,145105,6960,152,210,283,299,330,301,241,285,374,439,569,643,780,620,480,382,324,161,67,14,6,282276,7536,11630,12853,15055,19528,16674,12688,15779,18675,23260,24685,24311,23435,17049,13837,10684,7891,4615,1646,339,106,1243771,1
494,526,함평천지전통시장,전라남도 함평군 함평읍 기각리 980-2,35.06458,126.5227,4686025022,4686025000,전라남도,함평군,함평읍,0,1,0,41,1,1,118,4,31,0,6,4,2,3,0,132,15,254520,8401,230,317,345,417,437,345,291,411,498,636,673,683,732,547,540,517,473,205,80,18,6,32050,616,771,914,1134,1373,1143,938,1186,1421,2056,2532,2973,3273,2646,2566,2589,2286,1118,396,94,25,1204352,0
820,902,함평5일시장,전라남도 함평군 함평읍 기각리 980-2,35.06444,126.5207,4686025023,4686025000,전라남도,함평군,함평읍,1,0,0,82,1,1,118,4,32,0,5,4,2,3,1,127,15,375136,8401,230,317,345,417,437,345,291,411,498,636,673,683,732,547,540,517,473,205,80,18,6,32050,616,771,914,1134,1373,1143,938,1186,1421,2056,2532,2973,3273,2646,2566,2589,2286,1118,396,94,25,1204352,0
261,264,두류젊음의 광장,대구광역시 달서구 두류동 490-5,35.85602,128.5538,2729010200,2729055000,대구광역시,달서구,두류3동,0,0,1,53,0,0,116,0,68,2,9,50,3,6,2,954,123,1334599,8575,154,235,255,313,575,718,491,463,509,633,732,793,751,631,497,379,283,121,29,8,5,558631,16116,24157,25645,29595,40323,38950,30904,35675,40458,48983,52982,50682,43515,29818,20058,14247,9915,4791,1413,313,91,1367385,0
260,263,두류신시장,대구광역시 달서구 성당동 706-21,35.84528,128.5462,2729010100,2729051500,대구광역시,달서구,성당동,0,0,1,73,0,0,116,3,48,1,14,37,5,4,0,689,114,1165952,24153,650,1031,968,1057,1440,1505,1253,1585,1712,1895,2072,2174,2089,1748,1226,835,568,249,63,23,10,558631,16116,24157,25645,29595,40323,38950,30904,35675,40458,48983,52982,50682,43515,29818,20058,14247,9915,4791,1413,313,91,1367385,0
571,630,광장시장,서울특별시 종로구 예지동 6-1,37.57011,126.9997,1111015800,1111061500,서울특별시,종로구,종로1.2.3.4가동,0,0,1,1250,1,0,116,1,236,13,8,131,1,90,25,2534,609,15540000,7256,86,102,97,112,324,556,477,465,424,538,572,767,781,618,440,394,235,134,60,30,44,149384,3080,4447,5152,5861,10474,12942,10084,9859,9949,12282,12892,12567,11484,8464,6732,5768,3999,1979,802,291,276,1450383,1
570,629,광장전통시장,서울특별시 종로구 예지동 6-1,37.57011,126.9997,1111015800,1111061500,서울특별시,종로구,종로1.2.3.4가동,0,0,1,2019,1,0,116,1,236,13,8,131,1,90,25,2534,609,15540000,7256,86,102,97,112,324,556,477,465,424,538,572,767,781,618,440,394,235,134,60,30,44,149384,3080,4447,5152,5861,10474,12942,10084,9859,9949,12282,12892,12567,11484,8464,6732,5768,3999,1979,802,291,276,1450383,1
1462,2027,함덕오일시장,제주특별자치도 제주시 조천읍 함덕리 972-7,33.54024,126.668,5011025924,5011025900,제주특별자치도,제주시,조천읍,1,0,0,0,1,1,114,2,17,0,2,16,6,0,4,255,45,308888,25339,822,1329,1126,1097,1378,1398,1259,1770,1983,2143,2237,2113,1952,1359,1071,926,724,434,144,62,12,492466,19099,26625,26518,26756,31765,31831,26860,35826,38692,44220,42818,37935,32801,22077,16937,13153,9830,5747,2103,675,198,1299830,0
172,175,압량공설시장,경상북도 경산시 압량읍 부적리 461-1,35.82052,128.7358,4729010200,4729025600,경상북도,경산시,압량읍,1,0,0,8,1,1,114,0,67,0,8,30,5,5,0,579,98,830903,20912,1173,1156,645,526,1294,1891,1977,2160,1612,1401,1472,1358,1372,952,677,536,420,214,63,9,4,263728,8755,11721,10964,11736,18212,18017,15094,18098,19232,22336,22931,21922,20131,14770,10956,8439,6173,3081,934,161,65,1280563,1
460,490,나산5일시장,전라남도 함평군 나산면 삼축리 344-3,35.11184,126.6098,4686036021,4686036000,전라남도,함평군,나산면,1,0,0,12,1,1,114,1,2,0,2,0,1,0,3,4,2,27548,2875,53,50,64,74,99,104,95,87,98,156,212,291,353,280,244,229,212,120,41,11,2,32050,616,771,914,1134,1373,1143,938,1186,1421,2056,2532,2973,3273,2646,2566,2589,2286,1118,396,94,25,1204352,0
809,891,동복오일시장,전라남도 화순군 동복면 천변리 95,35.07163,127.1258,4679040023,4679040000,전라남도,화순군,동복면,1,0,0,22,1,0,111,1,1,0,1,0,1,1,3,7,0,76625,1625,13,21,27,35,60,55,26,34,38,84,121,172,180,153,143,184,157,78,32,9,3,62522,1407,2083,2539,3120,3840,2982,2106,2639,3447,4820,5582,5674,5492,3981,3715,3770,3091,1554,518,126,36,1214614,1
193,196,진보시장,경상북도 청송군 진보면 진안리 122-3,36.52823,129.046,4775037036,4775037000,경상북도,청송군,진보면,1,0,0,78,1,1,111,1,8,0,4,5,1,1,6,83,25,206064,6438,125,188,151,205,257,277,244,278,355,398,546,631,661,626,464,464,360,154,44,6,4,25044,424,555,534,673,850,844,792,901,1016,1383,2073,2635,2982,2545,2046,1996,1633,833,262,46,21,1124647,0
1783,2637,공룡시장,경상남도 고성군 고성읍 성내리 212-3,34.97266,128.3234,4882025021,4882025000,경상남도,고성군,고성읍,0,0,1,100,1,1,111,2,30,0,4,20,2,4,0,352,53,812278,24493,640,1229,1270,1434,1270,985,888,1491,1700,2056,2200,2133,2119,1623,1215,978,714,391,125,22,10,51361,870,1700,1906,2251,2156,1750,1539,2311,2777,3597,4378,4757,5274,4461,3634,3106,2654,1588,544,88,20,1198000,1
1170,1416,샘고을시장,전라북도 정읍시 시기동 353,35.56431,126.8553,4518010400,4518054500,전라북도,정읍시,시기동,0,0,1,298,1,1,111,0,33,0,7,15,6,5,5,311,78,433353,3405,44,114,116,156,195,149,126,130,164,216,264,275,348,279,285,234,148,95,42,9,16,108508,2479,3891,4426,5238,5976,4628,3897,4970,6443,8381,9039,9355,9527,7396,7130,6273,5120,3064,960,202,113,1201742,0
1410,1891,부평깡통시장,부산광역시 중구 부평동2가 15-10,35.10149,129.0262,2611012400,2611056000,부산광역시,중구,부평동,0,0,1,1381,1,1,111,1,167,4,13,101,1,42,42,2087,398,5585745,4672,41,70,81,111,241,301,216,266,239,310,391,417,540,465,363,274,203,70,38,10,25,41523,526,794,861,1166,2482,3197,2201,2270,2327,3067,3441,3633,4243,3648,2846,2264,1449,648,292,83,85,1214471,0
1736,2562,연산전통시장,,36.21627,127.2165,4423036021,4423036000,충청남도,논산시,연산면,0,0,1,17,1,1,110,0,2,0,2,2,1,0,0,43,7,145400,6137,63,131,165,164,190,189,167,178,212,357,518,695,829,649,504,442,374,212,77,13,8,116675,3043,4189,4696,5110,6025,5362,4943,5821,6762,8641,9352,10351,11285,8722,6945,6102,5047,3003,966,217,93,1243114,1
320,334,은산시장,,36.30952,126.8536,4476032021,4476032000,충청남도,부여군,은산면,0,1,0,18,1,1,110,1,1,0,2,1,3,0,2,25,6,112239,3780,36,59,98,115,132,87,80,110,139,214,290,348,523,429,329,271,280,170,47,13,10,65354,1082,1842,2102,2572,3104,2321,1935,2467,3044,4160,4874,5984,7184,5853,4967,4490,3900,2430,816,173,54,1203666,0
1615,2337,진동전통시장,경상남도 창원시 마산합포구 진동면 진동리 264-3,35.11331,128.4874,4812532024,4812532000,경상남도,창원시 마산합포구,진동면,0,1,0,70,0,1,109,2,3,0,3,14,2,0,3,158,20,540995,12349,486,653,545,498,556,529,580,929,1056,889,962,1075,1085,921,625,414,295,176,60,12,3,175716,5079,7560,6827,6937,9660,9262,8536,11949,12535,13116,14426,15100,16831,13197,9675,6894,4692,2365,832,174,69,1288860,0
198,201,청도시장,경상북도 청도군 청도읍 고수리 778,35.64394,128.746,4782025321,4782025300,경상북도,청도군,청도읍,1,0,0,122,1,1,109,3,4,0,3,8,3,0,1,188,32,423895,10320,193,269,334,378,455,414,374,469,565,781,836,940,1095,1013,739,584,493,287,78,20,3,42263,653,873,1066,1188,1492,1373,1195,1582,1873,2566,3147,4155,5073,4540,3641,2947,2672,1608,496,102,21,1181957,1
1463,2028,세화오일시장,제주특별자치도 제주시 구좌읍 세화리 1500-5,33.52595,126.8573,5011025628,5011025600,제주특별자치도,제주시,구좌읍,1,0,0,146,1,1,109,1,21,0,2,9,2,2,3,152,37,152491,15546,354,579,550,581,667,712,627,982,1071,1252,1434,1400,1333,1003,868,741,709,469,159,47,8,492466,19099,26625,26518,26756,31765,31831,26860,35826,38692,44220,42818,37935,32801,22077,16937,13153,9830,5747,2103,675,198,1299830,0
376,396,우산매일시장,광주광역시 광산구 우산동 1577-2,35.16342,126.8051,2920010900,2920058000,광주광역시,광산구,우산동,0,0,1,48,1,0,108,2,35,0,9,47,4,5,0,538,68,592820,27596,1075,1102,942,1149,1949,2289,2102,2163,1949,2138,2475,2428,2080,1226,885,708,514,286,111,22,3,405579,15952,23960,25956,26550,31100,27606,23157,31545,36615,40019,36015,27787,20862,12384,9790,7344,5084,2615,962,210,66,1270440,1
399,419,1913송정역시장,광주광역시 광산구 송정동 990-18,35.13637,126.792,2920010100,2920052500,광주광역시,광산구,송정2동,0,0,1,75,1,1,108,1,32,2,4,26,6,3,1,478,64,991523,6641,181,148,164,243,433,541,463,435,368,485,556,560,497,435,455,327,211,94,33,6,6,405579,15952,23960,25956,26550,31100,27606,23157,31545,36615,40019,36015,27787,20862,12384,9790,7344,5084,2615,962,210,66,1270440,1
116,116,운산공설시장,경상북도 안동시 일직면 운산리 78-1,36.4744,128.659,4717035033,4717035000,경상북도,안동시,일직면,1,0,0,10,1,1,107,1,0,0,1,0,0,0,2,8,5,95138,2777,19,28,66,59,81,69,46,68,91,154,204,243,328,309,308,252,242,143,56,8,3,158907,4496,6147,6482,7254,8659,8131,6912,8569,10168,12164,13077,13423,14232,11409,8686,7940,6230,3414,1185,267,62,1235582,1
121,121,임동공설시장,,36.56891,128.9194,4717040021,4717040000,경상북도,안동시,임동면,1,0,0,10,1,1,107,1,3,0,1,0,0,0,0,6,0,48182,1773,14,17,21,29,47,34,25,36,59,90,144,170,260,212,158,190,154,86,16,6,5,158907,4496,6147,6482,7254,8659,8131,6912,8569,10168,12164,13077,13423,14232,11409,8686,7940,6230,3414,1185,267,62,1235582,1
1,1,장기시장,경상북도 포항시 남구 장기면 임중리 333-2,35.89156,129.4914,4711133030,4711133000,경상북도,포항시 남구,장기면,1,0,0,13,1,0,107,1,3,0,2,0,1,0,4,8,10,44629,4117,24,47,55,71,100,98,83,103,116,180,306,410,503,475,427,410,390,223,71,21,4,230422,6809,10659,10532,10710,13063,13130,11591,15388,16615,19010,20748,20633,20915,15686,10211,7026,4564,2188,713,174,57,1301991,1
262,265,화원공설시장,대구광역시 달성군 화원읍 천내리 892-1,35.80114,128.4991,2771025021,2771025000,대구광역시,달성군,화원읍,0,0,1,31,1,1,107,2,22,2,10,20,3,2,2,325,42,1489879,48166,1477,1801,2040,2524,3311,3069,2481,2765,3088,4072,4875,4895,4262,2778,1858,1364,871,452,145,28,10,259339,13849,15569,12689,11234,13687,15357,18059,23639,22567,20904,20556,20295,17845,12000,8214,5774,4153,2122,667,129,30,1305265,0
1074,1277,화원시장,대구광역시 달성군 화원읍 천내리 892-1,35.80125,128.4997,2771025021,2771025000,대구광역시,달성군,화원읍,0,0,1,33,1,1,107,2,22,2,10,21,3,2,1,324,43,1489879,48166,1477,1801,2040,2524,3311,3069,2481,2765,3088,4072,4875,4895,4262,2778,1858,1364,871,452,145,28,10,259339,13849,15569,12689,11234,13687,15357,18059,23639,22567,20904,20556,20295,17845,12000,8214,5774,4153,2122,667,129,30,1305265,0
49,49,건천시장,경상북도 경주시 건천읍 건천리 341-1,35.84859,129.1053,4713025631,4713025600,경상북도,경주시,건천읍,0,1,0,38,1,1,107,1,1,0,3,6,4,0,1,94,34,369502,9502,143,203,222,280,383,346,322,350,437,606,791,936,1069,984,810,660,540,303,82,27,8,253502,6761,9435,9926,10910,14203,12718,11282,14178,16081,20606,23125,23727,23237,17932,13429,11094,8452,4560,1421,333,92,1266007,0
1029,1168,단성시장,,35.29792,127.958,4886037021,4886037000,경상남도,산청군,단성면,1,0,0,45,1,1,107,3,2,0,1,1,1,0,2,33,2,164157,5603,78,85,77,129,202,158,138,160,220,304,524,636,726,620,468,430,347,219,65,14,3,34857,573,756,998,1090,1370,1099,965,1162,1445,2064,3050,3479,3973,3307,2714,2590,2321,1340,440,103,18,1217838,1
119,119,천지공설시장,,36.45849,128.8928,4717039021,4717039000,경상북도,안동시,길안면,1,0,0,50,1,1,107,0,0,0,2,0,1,0,0,31,12,74433,2721,20,25,40,39,65,62,56,67,75,105,205,313,384,304,245,303,240,129,38,5,1,158907,4496,6147,6482,7254,8659,8131,6912,8569,10168,12164,13077,13423,14232,11409,8686,7940,6230,3414,1185,267,62,1235582,1
230,233,성환이화시장,충청남도 천안시 서북구 성환읍 성환리 449-1,36.91854,127.13,4413325021,4413325000,충청남도,천안시 서북구,성환읍,1,0,0,165,1,0,107,4,6,1,3,15,7,3,1,210,36,608121,24358,406,816,1111,1138,1574,1239,883,1292,1635,2102,2178,2129,2256,1660,1405,1074,843,427,128,32,30,400799,18806,22901,21141,21028,27926,33286,34113,38104,34714,34336,32168,27040,20321,12123,8369,6215,4650,2454,828,188,88,1345561,0
1248,1618,오산오색시장,경기도 오산시 오산동 862,37.15093,127.0709,4137010100,4137051000,경기도,오산시,중앙동,0,1,0,350,1,1,107,3,71,1,10,79,6,5,4,896,139,1510734,36118,1803,2267,2147,2090,2198,2260,2362,3257,3319,3466,2968,2425,1964,1203,866,740,482,214,71,10,6,229725,9835,13949,13083,11790,14209,17112,16711,22262,22265,20972,18161,15105,12211,7732,5493,4286,2729,1269,414,95,42,1371470,1
0,0,도구시장,경상북도 포항시 남구 동해면 도구리 668-1,35.98798,129.4399,4711132021,4711132000,경상북도,포항시 남구,동해면,1,0,0,10,1,1,106,1,3,0,3,6,1,0,4,74,6,226113,9908,248,319,337,436,510,492,477,490,524,733,871,936,1030,811,608,515,328,167,62,12,2,230422,6809,10659,10532,10710,13063,13130,11591,15388,16615,19010,20748,20633,20915,15686,10211,7026,4564,2188,713,174,57,1301991,1
209,212,용궁시장,경상북도 예천군 용궁면 읍부리 160-1,36.60817,128.301,4790038028,4790038000,경상북도,예천군,용궁면,1,0,0,57,1,1,106,0,0,0,0,0,2,0,12,0,0,15432,2456,20,30,33,54,70,46,41,67,83,119,158,207,283,296,285,242,252,116,43,7,4,55613,2030,2609,2320,2026,2114,2000,2327,3144,3553,3534,3761,4329,5022,4400,3466,3361,3116,1811,549,107,34,1231562,0
552,611,언양공설시장,울산광역시 울주군 언양읍 남부리 336-15,35.56302,129.1253,3171025332,3171025300,울산광역시,울주군,언양읍,0,1,0,57,1,1,106,3,14,0,3,27,2,2,2,463,63,1632087,28540,945,1491,1452,1347,1741,1807,1457,1828,2147,2410,2631,2642,2354,1551,1015,736,529,322,107,21,7,222538,7467,10339,10894,11578,13608,12904,11396,14452,16863,20454,21609,20281,17710,11820,7942,5799,4111,2305,792,180,34,1335240,1
1069,1272,고흥전통시장,전라남도 고흥군 고흥읍 남계리 628,34.608,127.2859,4677025026,4677025000,전라남도,고흥군,고흥읍,0,0,1,111,1,1,106,2,7,0,4,13,1,0,7,212,25,390380,12523,457,568,684,752,742,500,502,671,887,1002,1004,963,1012,783,678,555,406,222,92,34,9,63922,1197,1422,1737,2123,2424,1748,1579,2104,2723,3618,4579,5625,6745,5990,5970,5544,4841,2661,994,247,51,1158239,1
1387,1852,내일전통시장,경상남도 밀양시 내일동 174-9,35.49333,128.7533,4827010100,4827051000,경상남도,밀양시,내일동,0,1,0,122,1,1,106,1,41,0,5,26,5,5,6,382,82,1064026,2765,25,42,71,71,126,115,90,104,119,189,245,299,328,283,231,196,139,66,12,7,7,104831,2366,3254,3737,4092,4870,4344,3839,5068,5741,7201,8644,10092,11696,9406,6957,5693,4444,2434,764,141,48,1208003,1
446,474,밀양아리랑시장,경상남도 밀양시 내일동 583-1,35.49305,128.7526,4827010100,4827051000,경상남도,밀양시,내일동,0,1,0,218,1,1,106,2,43,0,5,28,7,5,6,403,87,1064026,2765,25,42,71,71,126,115,90,104,119,189,245,299,328,283,231,196,139,66,12,7,7,104831,2366,3254,3737,4092,4870,4344,3839,5068,5741,7201,8644,10092,11696,9406,6957,5693,4444,2434,764,141,48,1208003,0
265,268,서문시장2지구 종합상가,대구광역시 중구 대신동 115-67,35.87004,128.5808,2711015400,2711059500,대구광역시,중구,대신동,0,0,1,1494,1,1,106,1,133,4,13,43,2,22,20,818,190,2375244,8094,475,400,246,312,397,424,550,829,585,591,643,566,640,437,369,298,197,84,31,8,12,76547,2384,2758,2316,2773,5094,6770,5169,5586,5025,5741,5734,5591,5678,4549,4061,3314,2311,1102,391,97,103,1333066,1
547,606,남창옹기종기시장,울산광역시 울주군 온양읍 남창리 146,35.41669,129.2828,3171025624,3171025600,울산광역시,울주군,온양읍,0,1,0,12,1,1,105,2,6,0,3,18,3,0,1,176,24,525542,28688,1128,1492,1618,1666,1760,1555,1524,2019,2480,2891,2704,2428,2002,1211,818,614,454,231,75,17,1,222538,7467,10339,10894,11578,13608,12904,11396,14452,16863,20454,21609,20281,17710,11820,7942,5799,4111,2305,792,180,34,1335240,0
548,607,덕하시장,울산광역시 울주군 청량읍 상남리 578,35.49144,129.306,3171026223,3171026200,울산광역시,울주군,청량읍,0,1,0,12,1,1,105,1,3,0,2,10,5,0,0,132,13,679852,19443,945,869,741,817,1114,1210,1330,1575,1351,1612,1804,1696,1557,1075,655,489,346,166,70,16,5,222538,7467,10339,10894,11578,13608,12904,11396,14452,16863,20454,21609,20281,17710,11820,7942,5799,4111,2305,792,180,34,1335240,1
1115,1341,부여새시장,충청남도 부여군 부여읍 구아리 395-7,36.28099,126.9096,4476025029,4476025000,충청남도,부여군,부여읍,0,0,1,66,0,0,105,2,49,0,4,18,2,14,3,343,49,989043,20330,358,706,881,1023,1196,998,761,850,1150,1517,1807,1881,2070,1492,1272,986,744,427,158,37,16,65354,1082,1842,2102,2572,3104,2321,1935,2467,3044,4160,4874,5984,7184,5853,4967,4490,3900,2430,816,173,54,1203666,1
50,50,외동시장,경상북도 경주시 외동읍 입실리 1020,35.71496,129.3262,4713025921,4713025900,경상북도,경주시,외동읍,1,0,0,78,1,0,105,1,3,0,2,8,2,0,1,87,11,352317,20431,612,577,547,570,945,1084,1148,1213,1197,1575,1865,2272,2105,1530,1116,815,698,398,128,28,8,253502,6761,9435,9926,10910,14203,12718,11282,14178,16081,20606,23125,23727,23237,17932,13429,11094,8452,4560,1421,333,92,1266007,0
1059,1223,양양5일장,강원도 양양군 양양읍 57,38.07499,128.6232,4283025021,4283025000,강원도,양양군,양양읍,1,0,0,200,1,1,105,2,22,0,3,12,6,3,2,222,23,717788,12549,346,515,538,611,663,580,551,715,939,987,1100,1074,1175,827,646,575,410,188,81,25,3,27946,560,790,832,1013,1319,1092,1025,1315,1603,1921,2381,2720,3061,2478,1837,1811,1267,583,246,75,17,1277528,1
673,738,유성시장,대전광역시 유성구 장대동 191-7,36.35772,127.3339,3020011700,3020054000,대전광역시,유성구,온천2동,1,0,0,400,1,1,105,2,35,2,4,68,13,3,3,858,154,1254485,40180,1659,1862,1527,1667,4070,4373,3173,3269,2786,2808,2907,2989,2831,1682,1013,669,475,293,100,21,6,351047,15018,19928,19079,19076,24727,28017,26512,29557,29397,31048,29032,25042,20960,12651,7798,5655,4074,2337,890,192,57,1340568,1
1362,1807,신태인시장,전라북도 정읍시 신태인읍 신태인리 152-8,35.68591,126.8872,4518025021,4518025000,전라북도,정읍시,신태인읍,0,1,0,45,1,1,104,1,8,0,5,1,3,0,0,50,7,180910,5566,92,157,184,194,219,177,156,230,271,369,429,481,549,450,506,444,349,227,65,9,8,108508,2479,3891,4426,5238,5976,4628,3897,4970,6443,8381,9039,9355,9527,7396,7130,6273,5120,3064,960,202,113,1201742,0
120,120,풍산시장,,36.57843,128.5749,4717025021,4717025000,경상북도,안동시,풍산읍,1,0,0,64,1,1,104,2,6,0,1,4,0,0,1,62,13,313832,6390,74,116,125,163,210,243,179,195,241,328,529,586,711,703,572,530,484,274,96,24,7,158907,4496,6147,6482,7254,8659,8131,6912,8569,10168,12164,13077,13423,14232,11409,8686,7940,6230,3414,1185,267,62,1235582,1
377,397,담양시장,전라남도 담양군 담양읍 담주리 5-2,35.32321,126.9807,4671025021,4671025000,전라남도,담양군,담양읍,1,0,0,120,1,1,104,3,31,0,4,7,2,13,8,231,73,514533,14667,523,582,581,649,910,816,696,827,860,1077,1197,1146,1229,931,846,767,561,307,121,30,11,46280,1125,1220,1354,1675,2611,2223,1661,1983,2133,3054,3765,4381,4659,3622,3297,3049,2530,1305,492,106,35,1212223,1
263,266,현풍공설시장,대구광역시 달성군 현풍면 원교리 12-5,35.69477,128.4422,2771026526,2771026500,대구광역시,달성군,현풍읍,0,0,1,51,1,1,103,1,18,0,5,16,5,1,1,210,27,389868,23310,1238,1239,923,810,1213,1932,2150,2315,2033,1588,1635,1585,1538,1054,807,537,420,220,59,11,3,259339,13849,15569,12689,11234,13687,15357,18059,23639,22567,20904,20556,20295,17845,12000,8214,5774,4153,2122,667,129,30,1305265,0
1377,1829,진안고원시장,전라북도 진안군 군상리 406-7,35.79263,127.4294,4572025021,4572025000,전라북도,진안군,진안읍,0,1,0,60,1,1,103,2,22,0,2,5,2,2,7,103,16,271538,10139,312,371,383,465,544,414,358,485,583,756,825,862,883,723,682,568,517,294,82,22,10,25394,614,662,786,894,1064,905,718,917,1164,1584,2058,2458,2672,2183,2010,1819,1594,897,299,68,28,1179275,1
194,197,영양시장,경상북도 영양군 영양읍 서부리 288-3,36.66434,129.116,4776025022,4776025000,경상북도,영양군,영양읍,0,1,0,62,1,1,103,1,22,0,4,5,1,3,0,108,16,276427,7305,200,244,261,291,343,309,322,322,424,530,586,661,702,585,439,461,337,181,84,15,8,16692,334,392,446,492,593,552,499,533,731,998,1312,1675,1857,1599,1284,1400,1148,567,205,47,28,1139935,1
1075,1278,현풍백년도깨비시장,대구광역시 달성군 현풍읍 원교리 12-5,35.69475,128.4422,2771026526,2771026500,대구광역시,달성군,현풍읍,0,0,1,85,1,1,103,1,18,0,5,16,5,1,1,210,27,389868,23310,1238,1239,923,810,1213,1932,2150,2315,2033,1588,1635,1585,1538,1054,807,537,420,220,59,11,3,259339,13849,15569,12689,11234,13687,15357,18059,23639,22567,20904,20556,20295,17845,12000,8214,5774,4153,2122,667,129,30,1305265,0
900,1012,특산물전통시장,충청남도 태안군 태안읍 동문리 286 일원,36.7513,126.2985,4482525021,4482525000,충청남도,태안군,태안읍,0,1,0,136,1,1,103,4,30,0,4,28,2,0,7,394,48,415096,29525,923,1286,1427,1498,1494,1488,1365,1873,2141,2333,2472,2518,2452,1841,1634,1269,846,499,111,50,5,62214,1264,1839,2081,2343,2628,2409,2157,2960,3460,4200,5013,5890,6614,5410,4833,3996,2803,1675,493,120,26,1309115,0
342,356,태안특산물전통시장,,36.75136,126.2985,4482525021,4482525000,충청남도,태안군,태안읍,1,0,0,136,1,1,103,4,30,0,4,28,2,0,7,394,48,415096,29525,923,1286,1427,1498,1494,1488,1365,1873,2141,2333,2472,2518,2452,1841,1634,1269,846,499,111,50,5,62214,1264,1839,2081,2343,2628,2409,2157,2960,3460,4200,5013,5890,6614,5410,4833,3996,2803,1675,493,120,26,1309115,0
229,232,병천시장,충청남도 천안시 동남구 병천면 병천리 163-2,36.76325,127.2987,4413136022,4413136000,충청남도,천안시 동남구,병천면,1,0,0,185,1,1,103,1,8,0,1,4,2,2,4,110,11,289431,6082,92,158,154,185,381,382,239,302,341,403,557,638,640,483,371,262,254,165,50,18,7,258009,8435,12014,12930,13298,17763,17612,14855,18384,20421,22431,22355,21475,18800,12398,8799,6734,5185,2831,942,260,87,1345561,0
1130,1356,군산공설시장,전라북도 군산시 신영동 18-1,35.98317,126.7203,4513012300,4513060500,전라북도,군산시,중앙동,0,0,1,282,1,1,103,0,50,0,6,19,5,7,7,396,89,533500,4466,128,108,99,109,183,267,310,320,289,304,327,359,424,371,359,254,144,71,34,3,3,267859,8147,12804,13139,13691,15894,13827,12669,18036,20117,23316,22618,21346,21555,16042,13216,9684,6482,3586,1305,261,124,1264629,0
226,229,천안중앙시장,충청남도 천안시 동남구 사직동 263,36.80031,127.1485,4413110400,4413151000,충청남도,천안시 동남구,중앙동,0,0,1,430,1,1,103,0,29,0,6,33,4,3,3,442,82,864333,5477,81,91,109,174,269,276,241,258,281,385,488,585,664,512,376,321,224,90,36,5,11,258009,8435,12014,12930,13298,17763,17612,14855,18384,20421,22431,22355,21475,18800,12398,8799,6734,5185,2831,942,260,87,1345561,0
4,4,죽장시장,경상북도 포항시 북구 죽장면 입암리 858-34,36.16158,129.0954,4711335024,4711335000,경상북도,포항시 북구,죽장면,1,0,0,18,1,0,102,1,2,0,3,0,1,0,2,19,4,46521,2126,15,24,28,28,38,28,33,39,45,83,156,236,325,273,231,190,198,111,37,8,0,272494,9233,12972,12453,13058,15794,14463,13898,18700,19331,22174,23935,24833,24309,17670,11477,8285,5717,2882,1044,211,55,1301991,1
949,1065,서창시장,경상남도 양산시 삼호동 525,35.4162,129.172,4833011400,4833054000,경상남도,양산시,서창동,1,0,0,37,1,1,102,3,12,0,6,35,3,1,0,383,55,700961,28714,889,1506,1658,1655,1687,1578,1333,2009,2477,2965,2713,2246,2075,1499,990,701,452,191,58,21,11,352229,14959,19638,17515,16765,19862,20969,20734,28485,30062,30719,30703,28023,25300,17485,12143,8940,5960,2821,887,200,59,1293735,1
378,398,창평시장,전라남도 담양군 창평면 창평리 209-1,35.23811,127.0149,4671034021,4671034000,전라남도,담양군,창평면,0,1,0,56,1,1,102,1,1,0,3,2,1,0,3,36,15,164787,3704,81,67,78,163,169,143,128,122,152,208,297,409,400,301,315,257,247,124,33,5,5,46280,1125,1220,1354,1675,2611,2223,1661,1983,2133,3054,3765,4381,4659,3622,3297,3049,2530,1305,492,106,35,1212223,1
197,200,강구시장,경상북도 영덕군 강구면 오포리 535-5,36.35785,129.38,4777031032,4777031000,경상북도,영덕군,강구면,0,1,0,58,1,1,102,1,19,0,3,11,4,0,10,197,16,281618,6248,124,106,139,163,229,209,157,233,282,397,541,599,735,649,510,565,354,187,45,22,2,36313,758,917,989,1128,1283,1142,1007,1399,1664,2209,2809,3356,3902,3508,2868,3041,2519,1261,416,107,30,1272586,1
327,341,정산시장,,36.41059,126.948,4479033021,4479033000,충청남도,청양군,정산면,0,1,0,59,1,1,102,1,0,0,3,3,1,0,7,39,7,125023,3598,53,93,100,167,166,159,139,127,156,257,256,363,362,314,280,226,199,136,36,7,2,30948,508,761,860,1196,1530,1127,983,1104,1287,1833,2306,3006,3388,2771,2367,2147,2028,1276,385,66,19,1226623,0
1900,2860,영동시장,경기도 수원시 팔달구 영동 8,37.27681,127.0186,4111512400,4111574000,경기도,수원시 팔달구,행궁동,0,0,1,300,1,1,102,0,63,0,9,44,3,21,6,630,183,5626364,10916,143,129,186,284,600,903,737,571,673,819,992,1165,1107,883,614,546,316,143,70,23,12,174930,4119,5364,6155,7685,12530,16450,12589,12110,12474,14851,15554,14991,13221,9229,6706,5195,3323,1570,551,169,94,1369055,0
1632,2356,신촌시장,경상남도 창원시 의창구 북면 신촌리 593,35.35167,128.6088,4812131036,4812131000,경상남도,창원시 의창구,북면,1,0,0,36,1,1,101,1,5,0,1,6,1,0,15,77,5,240595,43411,3012,3546,2341,1334,1760,2224,3118,4983,4248,2932,3047,3130,2998,1820,1108,735,586,336,119,27,7,262408,9387,12104,11462,12187,17477,18422,15998,19338,19423,21633,25540,25045,21171,13359,8034,5304,3698,2015,650,125,36,1288860,1
188,191,청송시장,경상북도 청송군 청송읍 월막리 423-5,36.43512,129.0522,4775025021,4775025000,경상북도,청송군,청송읍,1,0,0,38,1,1,101,1,18,0,5,2,3,1,5,79,17,208622,5196,131,156,161,202,231,229,230,249,267,339,478,524,529,386,334,301,258,131,44,7,9,25044,424,555,534,673,850,844,792,901,1016,1383,2073,2635,2982,2545,2046,1996,1633,833,262,46,21,1124647,0
899,1011,다시샛골전통시장,전라남도 나주시 다시면 동곡리 39-46,35.01575,126.6357,4617036032,4617036000,전라남도,나주시,다시면,1,0,0,99,1,1,101,1,1,0,2,0,3,0,3,22,1,14220,3585,20,40,64,94,109,137,93,103,133,171,275,332,471,354,320,343,306,149,51,16,4,115613,4589,5544,4863,4526,5722,6692,6568,8023,8264,8197,8373,8883,9383,6784,5978,5572,4286,2310,816,175,65,1212482,1
321,335,홍산시장,,36.21362,126.7582,4476036024,4476036000,충청남도,부여군,홍산면,0,1,0,145,1,1,101,1,1,0,3,2,1,0,0,37,5,152912,2901,40,53,60,105,103,96,43,91,120,135,180,269,346,294,300,267,218,129,39,8,5,65354,1082,1842,2102,2572,3104,2321,1935,2467,3044,4160,4874,5984,7184,5853,4967,4490,3900,2430,816,173,54,1203666,0
189,192,부남시장,경상북도 청송군 부남면 대전리 64,36.34653,129.0646,4775032031,4775032000,경상북도,청송군,부남면,1,0,0,12,1,0,100,1,0,0,1,0,1,0,4,16,6,43609,2507,31,35,49,45,74,60,48,68,58,101,193,308,332,315,221,253,186,95,31,3,1,25044,424,555,534,673,850,844,792,901,1016,1383,2073,2635,2982,2545,2046,1996,1633,833,262,46,21,1124647,0
190,193,도평시장,경상북도 청송군 현동면 도평리 839-3,36.29005,129.0168,4775033028,4775033000,경상북도,청송군,현동면,1,0,0,26,1,0,100,1,3,0,2,0,1,1,2,25,9,32852,2097,28,49,39,57,84,55,46,58,84,125,189,220,223,224,183,168,151,85,21,6,2,25044,424,555,534,673,850,844,792,901,1016,1383,2073,2635,2982,2545,2046,1996,1633,833,262,46,21,1124647,0
182,185,봉양,경상북도 의성군 봉양면 화전리 95-4,36.29956,128.5814,4773038040,4773038000,경상북도,의성군,봉양면,1,0,0,37,1,0,100,1,4,0,3,2,2,0,9,54,16,202659,3953,86,68,54,86,126,132,126,155,155,205,323,389,473,446,320,323,237,184,50,11,4,51724,1009,902,1048,1248,1571,1583,1497,1746,1967,2733,3680,5034,6228,5561,4485,4453,3912,2223,667,129,48,1150474,1
1382,1838,부평종합시장,인천광역시 부평구 부평동 360-1,37.4965,126.7266,2823710100,2823754000,인천광역시,부평구,부평4동,0,0,1,200,1,1,100,1,81,3,12,160,3,4,4,1723,394,2963158,36696,1256,1287,1140,1270,2259,3625,3250,3295,2839,2812,3077,3055,2659,1697,1266,883,607,287,92,26,14,494962,13968,18937,20288,22922,31764,38421,32231,35205,36201,41215,44709,45445,40232,25776,18120,13267,9161,4779,1700,418,203,1337842,1
1065,1229,사강시장,화성시 송산면 사강리 631-21 일원,37.21339,126.7369,4159034021,4159034000,경기도,화성시,송산면,0,1,0,347,0,1,100,1,5,0,3,16,2,0,2,136,25,471464,10908,141,301,385,402,489,503,409,459,621,801,1000,1183,1239,850,693,553,476,252,118,22,11,855248,45396,59089,53715,43034,46676,57862,65336,85845,86924,77135,63252,52195,42609,27389,18755,13360,9490,4991,1693,386,116,1407706,1
186,189,안평,경상북도 의성군 안평면 박곡리 952-3,36.37545,128.5799,4773046036,4773046000,경상북도,의성군,안평면,1,0,0,5,1,0,99,1,3,0,1,0,1,0,7,5,1,14662,2143,30,20,34,34,31,47,38,48,66,74,128,207,301,261,216,220,226,118,33,7,4,51724,1009,902,1048,1248,1571,1583,1497,1746,1967,2733,3680,5034,6228,5561,4485,4453,3912,2223,667,129,48,1150474,0
3,3,기계시장,경상북도 포항시 북구 기계면 현내리 403,36.06994,129.2085,4711334021,4711334000,경상북도,포항시 북구,기계면,1,0,0,18,1,0,98,1,1,0,1,2,1,0,0,38,18,159912,4920,30,56,80,112,140,153,101,127,137,232,364,539,622,604,440,463,401,217,85,15,2,272494,9233,12972,12453,13058,15794,14463,13898,18700,19331,22174,23935,24833,24309,17670,11477,8285,5717,2882,1044,211,55,1301991,1
806,888,능주전통시장,전라남도 화순군 능주면 관영리 94-8,34.99059,126.959,4679035026,4679035000,전라남도,화순군,능주면,1,0,0,62,1,1,98,1,0,0,3,1,1,2,3,33,4,97031,3269,56,65,90,124,160,143,107,117,162,181,218,342,410,256,260,241,194,101,33,9,0,62522,1407,2083,2539,3120,3840,2982,2106,2639,3447,4820,5582,5674,5492,3981,3715,3770,3091,1554,518,126,36,1214614,1
908,1021,순창시장,전라북도 순창군 순창읍 남계리 800,35.37182,127.1451,4577025022,4577025000,전라북도,순창군,순창읍,1,0,0,189,1,1,98,3,44,0,6,11,6,3,2,186,26,216517,10308,408,457,682,656,589,441,403,606,752,898,828,706,747,569,538,425,318,196,71,13,5,27810,778,743,1064,1155,1168,908,879,1122,1419,1905,2169,2336,2709,2123,2092,2092,1822,925,298,75,28,1145301,1
48,48,안강시장,경상북도 경주시 안강읍 양월리 1350-1,35.99031,129.2217,4713025334,4713025300,경상북도,경주시,안강읍,0,1,0,252,1,1,98,2,8,0,6,6,5,0,0,174,63,320325,25017,429,761,968,1095,1314,1069,788,1010,1374,1982,2483,2568,2517,1905,1583,1357,1044,579,151,27,13,253502,6761,9435,9926,10910,14203,12718,11282,14178,16081,20606,23125,23727,23237,17932,13429,11094,8452,4560,1421,333,92,1266007,0
6,6,송라시장,경상북도 포항시 북구 송라면 광천리 32-24,36.22839,129.3592,4711333024,4711333000,경상북도,포항시 북구,송라면,1,0,0,12,1,1,97,1,4,0,2,0,3,0,8,17,6,127069,2490,12,17,38,49,88,75,37,68,67,119,189,280,329,290,243,232,194,114,42,6,1,272494,9233,12972,12453,13058,15794,14463,13898,18700,19331,22174,23935,24833,24309,17670,11477,8285,5717,2882,1044,211,55,1301991,1
319,333,외산시장,,36.30313,126.7047,4476033030,4476033000,충청남도,부여군,외산면,1,0,0,42,1,1,96,1,1,0,1,0,3,0,4,23,6,77492,2382,15,36,56,65,64,53,44,54,73,132,149,244,303,285,238,241,176,104,36,10,4,65354,1082,1842,2102,2572,3104,2321,1935,2467,3044,4160,4874,5984,7184,5853,4967,4490,3900,2430,816,173,54,1203666,0
756,837,성남프라자,울산광역시 중구 성남동 190-239,35.55451,129.3175,3111010600,3111058500,울산광역시,중구,중앙동,0,0,1,70,1,1,96,2,52,0,3,32,4,15,14,801,177,2470169,13296,214,225,278,382,703,889,682,636,721,900,1242,1382,1586,1267,863,652,389,194,52,16,23,217595,6690,9948,9838,10280,13001,13815,11717,14654,16186,18072,20628,20775,18760,13096,8479,5803,3573,1590,514,116,60,1315994,0
199,202,풍각시장,경상북도 청도군 풍각면 송서리 561-1,35.64065,128.6193,4782032033,4782032000,경상북도,청도군,풍각면,1,0,0,87,1,1,96,1,1,0,3,2,0,0,2,36,9,169639,3935,71,59,74,87,105,113,114,137,149,196,261,415,527,444,343,300,294,179,60,4,3,42263,653,873,1066,1188,1492,1373,1195,1582,1873,2566,3147,4155,5073,4540,3641,2947,2672,1608,496,102,21,1181957,1
896,1008,남평5일시장,전라남도 나주시 남평읍 남평리 69-1,35.04582,126.8415,4617025021,4617025000,전라남도,나주시,남평읍,1,0,0,120,1,1,96,0,7,0,3,5,5,0,1,92,22,417429,12044,578,542,423,349,545,644,660,957,869,836,904,1059,1127,772,609,522,349,216,63,16,4,115613,4589,5544,4863,4526,5722,6692,6568,8023,8264,8197,8373,8883,9383,6784,5978,5572,4286,2310,816,175,65,1212482,1
1009,1142,광천원동시장,충청남도 홍성군 광천읍 광천리183-2,36.50233,126.625,4480025322,4480025300,충청남도,홍성군,광천읍,0,0,1,150,1,0,95,2,13,0,7,3,3,0,0,87,14,298306,8520,102,180,224,263,311,280,205,272,339,471,622,844,987,854,818,746,558,304,99,20,21,100102,3260,4456,4810,4796,5160,4570,4520,5961,6646,7834,7676,8249,8159,6600,5472,4586,4023,2382,710,171,61,1302779,0
1007,1139,광천전통시장,충청남도 홍성군 광천읍 광천리 230,36.50076,126.6254,4480025322,4480025300,충청남도,홍성군,광천읍,0,1,0,177,1,1,95,2,13,0,6,3,2,0,0,88,14,298306,8520,102,180,224,263,311,280,205,272,339,471,622,844,987,854,818,746,558,304,99,20,21,100102,3260,4456,4810,4796,5160,4570,4520,5961,6646,7834,7676,8249,8159,6600,5472,4586,4023,2382,710,171,61,1302779,0
331,345,광천정기시장,,36.50086,126.625,4480025322,4480025300,충청남도,홍성군,광천읍,1,0,0,177,1,1,95,2,13,0,6,3,2,0,0,89,14,298306,8520,102,180,224,263,311,280,205,272,339,471,622,844,987,854,818,746,558,304,99,20,21,100102,3260,4456,4810,4796,5160,4570,4520,5961,6646,7834,7676,8249,8159,6600,5472,4586,4023,2382,710,171,61,1302779,0
337,351,삽교시장,,36.68703,126.7415,4481025321,4481025300,충청남도,예산군,삽교읍,0,1,0,30,1,1,94,1,4,0,3,4,2,0,3,56,7,143837,9955,279,265,289,354,441,674,615,536,535,633,727,862,899,747,601,561,514,320,82,14,7,78084,1423,2208,2616,3040,3630,3200,2771,3359,4023,5500,6265,7412,8010,6733,5558,4893,4149,2418,686,150,40,1257796,0
1054,1218,삼척번개시장,강원도 삼척시 사직동 50-1,37.43078,129.1786,4223012100,4223051000,강원도,삼척시,남양동,0,0,1,53,1,1,94,1,6,0,0,3,4,0,5,29,4,151677,7719,122,170,214,283,403,346,277,317,416,541,676,776,866,718,586,450,320,179,47,10,2,65243,1720,2141,2334,2800,4433,2803,2511,3284,3923,5000,5485,5846,6391,4776,3796,3391,2576,1400,477,105,51,1239207,1
142,142,신평시장,,36.88478,126.7737,4427038021,4427038000,충청남도,당진시,신평면,1,0,0,54,1,1,94,1,2,0,1,3,2,0,3,43,10,145017,15814,533,959,988,825,816,607,627,1074,1306,1304,1197,1314,1215,856,753,571,477,280,85,19,8,166249,6621,8940,8366,7321,7814,8261,9812,13015,13149,13521,12936,12998,12164,8843,7363,5943,5098,2867,932,215,70,1377370,0
210,213,풍양시장,경상북도 예천군 풍양면 낙상리 157-7,36.50927,128.2998,4790041040,4790041000,경상북도,예천군,풍양면,1,0,0,76,1,1,93,1,0,0,2,1,1,0,2,24,9,80184,3165,22,32,46,74,111,85,62,51,93,146,228,277,400,345,311,312,344,171,44,9,2,55613,2030,2609,2320,2026,2114,2000,2327,3144,3553,3534,3761,4329,5022,4400,3466,3361,3116,1811,549,107,34,1231562,1
287,301,유구시장,,36.55393,126.9516,4415025023,4415025000,충청남도,공주시,유구읍,1,0,0,80,1,1,93,1,2,0,4,7,1,2,3,88,18,213003,7461,113,164,187,210,264,224,223,273,337,451,534,794,977,778,587,533,478,236,77,14,7,104545,2332,3441,3825,4334,6119,5157,4348,5141,5973,7343,8523,9922,10412,8012,6175,5303,4419,2667,858,179,62,1270289,0
1633,2357,가술시장,경상남도 창원시 의창구 대산면 가술리 385-1,35.33443,128.7072,4812132024,4812132000,경상남도,창원시 의창구,대산면,1,0,0,8,1,1,92,1,0,0,3,6,2,0,0,51,8,237442,7225,105,146,179,231,317,331,302,360,354,462,577,762,896,712,492,421,325,179,59,13,2,262408,9387,12104,11462,12187,17477,18422,15998,19338,19423,21633,25540,25045,21171,13359,8034,5304,3698,2015,650,125,36,1288860,1
54,54,서면시장,경상북도 경주시 서면 아화리 240-2,35.89506,129.048,4713035022,4713035000,경상북도,경주시,서면,1,0,0,18,1,0,92,1,0,0,2,1,5,0,5,33,11,130574,3219,15,44,67,56,114,74,76,76,131,176,248,314,396,361,352,313,226,136,35,7,2,253502,6761,9435,9926,10910,14203,12718,11282,14178,16081,20606,23125,23727,23237,17932,13429,11094,8452,4560,1421,333,92,1266007,0
1064,1228,발안만세시장,화성시 향남읍 평리 81-51 일원,37.13142,126.9095,4159025921,4159025900,경기도,화성시,향남읍,0,1,0,214,0,1,92,2,14,0,8,31,3,1,0,405,59,1416941,85844,4628,6040,5565,4482,4335,5898,6839,9007,9165,8079,6115,4794,3939,2431,1669,1271,911,498,133,36,9,855248,45396,59089,53715,43034,46676,57862,65336,85845,86924,77135,63252,52195,42609,27389,18755,13360,9490,4991,1693,386,116,1407706,1
1066,1230,조암시장,화성시 우정읍 조암리 270-7 일원,37.0835,126.8185,4159025632,4159025600,경기도,화성시,우정읍,0,1,0,400,0,1,92,1,10,0,4,22,1,0,2,181,30,612606,17382,326,587,724,724,896,882,729,869,1279,1496,1746,1772,1641,1127,934,684,545,301,97,17,6,855248,45396,59089,53715,43034,46676,57862,65336,85845,86924,77135,63252,52195,42609,27389,18755,13360,9490,4991,1693,386,116,1407706,1
200,203,동곡시장,경상북도 청도군 금천면 동곡리 776,35.69206,128.8911,4782036031,4782036000,경상북도,청도군,금천면,1,0,0,39,1,1,91,2,1,0,2,2,1,0,2,30,5,143479,3327,27,31,51,55,94,85,57,82,101,161,246,339,412,427,373,287,253,174,53,14,5,42263,653,873,1066,1188,1492,1373,1195,1582,1873,2566,3147,4155,5073,4540,3641,2947,2672,1608,496,102,21,1181957,1
1253,1623,초계시장,경상남도 합천군 초계면 초계리 50-1,35.55935,128.2668,4889036022,4889036000,경상남도,합천군,초계면,0,1,0,76,1,1,91,1,2,0,3,2,2,0,5,31,15,139418,2478,32,41,54,64,111,78,59,84,99,128,189,221,294,261,217,210,182,107,36,9,2,44006,646,953,1138,1319,1685,1358,1088,1465,1795,2488,3425,4259,4956,4103,3589,3624,3451,1931,581,112,40,1192591,0
1149,1385,불로전통시장,대구광역시 동구 불로동 450-2,35.9104,128.6419,2714010600,2714062000,대구광역시,동구,불로.봉무동,1,0,0,100,1,1,91,0,9,0,1,4,2,2,4,139,18,733888,21729,883,1401,1229,1073,1101,1168,1133,1725,2046,1942,1692,1606,1556,1157,815,574,361,186,65,12,4,341920,11024,14169,12907,13659,19381,22303,20200,23621,24693,26717,27982,29016,28809,22609,17040,13171,8827,4186,1196,285,125,1293313,1
1024,1163,의령전통시장,경상남도 의령군 의령읍 서동리 494-8,35.31852,128.2607,4872025021,4872025000,경상남도,의령군,의령읍,0,1,0,102,1,1,91,2,49,0,4,15,3,4,3,176,37,392707,9543,299,395,413,493,529,471,426,526,655,833,823,781,782,642,485,398,347,178,56,8,3,26800,463,611,674,848,1079,985,799,945,1181,1688,2093,2564,2949,2432,1993,2013,1914,1132,361,67,9,1197442,0
1057,1221,관고전통시장,경기도 이천시 관고동 10-13,37.28083,127.4403,4150010200,4150053000,경기도,이천시,관고동,0,1,0,110,1,1,91,5,82,0,4,75,3,2,5,935,149,819426,10279,270,300,346,442,683,837,703,650,641,835,990,975,938,617,405,309,213,81,33,8,3,218388,7949,10874,10880,11351,13604,16501,14274,16252,16967,17723,18039,17207,15633,10314,7223,5842,4401,2341,741,209,63,1399989,1
29,29,오천시장,경상북도 포항시 남구 오천읍 세계리 823-1,35.96586,129.418,4711125629,4711125600,경상북도,포항시 남구,오천읍,0,1,0,115,1,1,91,1,3,0,5,9,4,0,2,184,24,325738,54839,2349,3360,3119,2754,3045,3272,3425,4767,4997,5134,4515,4030,3803,2466,1478,1061,750,375,101,24,14,230422,6809,10659,10532,10710,13063,13130,11591,15388,16615,19010,20748,20633,20915,15686,10211,7026,4564,2188,713,174,57,1301991,1
541,600,장계시장,전라북도 장수군 장계면 장계리 464-1,35.72947,127.5823,4574033521,4574033500,전라북도,장수군,장계면,1,0,0,39,1,1,90,1,20,0,4,2,3,2,1,59,6,192233,4429,104,152,172,177,196,173,143,170,264,324,365,408,427,362,275,279,233,152,38,6,9,22085,446,710,820,838,902,767,708,845,1121,1461,1691,1991,2228,1988,1612,1524,1353,768,241,50,21,1130604,1
170,173,하양공설시장,경상북도 경산시 하양읍 금락리 35-6,35.91563,128.8193,4729025021,4729025000,경상북도,경산시,하양읍,0,1,0,109,1,1,90,2,13,0,5,25,2,2,2,384,56,1265918,25619,624,1036,1273,1485,2133,1670,1144,1408,1725,2342,2205,2027,1832,1452,1147,949,715,337,84,19,12,263728,8755,11721,10964,11736,18212,18017,15094,18098,19232,22336,22931,21922,20131,14770,10956,8439,6173,3081,934,161,65,1280563,1
875,980,세종전통시장,세종특별자치시 조치원읍 정리 19-1,36.59972,127.3006,3611025025,3611025000,세종특별자치시,세종특별자치시,조치원읍,1,0,0,277,1,1,90,1,42,0,4,29,3,4,2,488,89,1319733,43100,1280,1948,2085,2094,3178,3260,2541,2901,3228,3664,3416,3282,3051,2309,1701,1412,1012,494,192,38,14,355831,20901,26382,24319,18358,17056,20397,26014,35478,36398,32433,24767,20438,18009,12130,8276,6116,4429,2680,994,206,50,1348116,1
549,608,곡천시장,울산광역시 울주군 웅촌면 곡천리 320-24,35.46562,129.2097,3171034023,3171034000,울산광역시,울주군,웅촌면,1,0,0,11,1,1,89,1,5,0,3,2,3,0,1,32,4,305024,7731,116,156,165,228,410,437,309,314,360,439,718,978,969,671,529,400,301,162,57,12,0,222538,7467,10339,10894,11578,13608,12904,11396,14452,16863,20454,21609,20281,17710,11820,7942,5799,4111,2305,792,180,34,1335240,1
909,1022,동계시장,전라북도 순창군 동계면 현포리 623,35.43946,127.2399,4577032021,4577032000,전라북도,순창군,동계면,1,0,0,19,1,1,89,1,2,0,1,0,1,0,6,11,0,23426,2023,39,33,42,49,51,55,45,60,84,124,150,186,212,188,191,208,177,89,24,13,3,27810,778,743,1064,1155,1168,908,879,1122,1419,1905,2169,2336,2709,2123,2092,2092,1822,925,298,75,28,1145301,1
854,955,덕양시장,전라남도 여수시 소라면 덕양리 1270-1,34.79801,127.6318,4613031021,4613031000,전라남도,여수시,소라면,0,0,1,25,1,1,89,1,1,0,3,1,2,0,3,43,2,99342,20426,873,1219,1022,1020,1185,1019,1013,1594,1563,1632,1724,1780,1547,995,757,641,496,248,73,20,5,280242,8793,12149,12448,13964,17595,16124,13516,17510,19365,22550,24216,24305,23120,17672,14242,10292,7103,3566,1302,305,105,1292967,0
1177,1428,병영5일시장,전라남도 강진군 병영면 삼인리 318,34.71406,126.8156,4681038025,4681038000,전라남도,강진군,병영면,1,0,0,36,1,1,89,1,1,0,3,0,2,1,7,21,3,24220,1669,19,30,27,58,59,41,32,42,57,90,124,147,193,137,163,152,176,73,38,9,2,34597,760,1015,1192,1328,1579,1286,1073,1388,1599,2174,2546,3103,3519,2679,2699,2534,2367,1199,453,75,29,1180093,0
1025,1164,신반전통시장,경상남도 의령군 부림면 신반리 563-2,35.46811,128.325,4872039021,4872039000,경상남도,의령군,부림면,1,0,0,55,1,1,89,2,5,0,3,2,2,0,4,56,17,194893,2844,29,60,71,92,107,93,66,71,107,190,243,275,301,245,247,271,218,102,50,6,0,26800,463,611,674,848,1079,985,799,945,1181,1688,2093,2564,2949,2432,1993,2013,1914,1132,361,67,9,1197442,0
965,1085,대신시장,부산광역시 서구 동대신동1가 113-1,35.11033,129.0197,2614010100,2614051000,부산광역시,서구,동대신제1동,0,0,1,98,0,0,89,2,66,2,11,48,6,11,5,713,139,1616534,4563,83,130,138,148,283,304,240,247,278,317,379,381,432,362,293,230,185,95,23,11,4,108135,2315,3307,3386,3901,6648,6893,5193,6013,6720,7987,8673,9329,10424,8690,6945,5424,3722,1704,578,160,123,1290550,1
863,964,서시장주변시장,전라남도 여수시 서교동 534-20,34.74095,127.7285,4613011300,4613063500,전라남도,여수시,서강동,0,0,1,250,1,1,89,1,40,0,7,20,4,1,4,608,114,1262244,3826,61,87,106,142,210,219,141,163,201,245,279,326,394,402,318,251,163,79,28,9,2,280242,8793,12149,12448,13964,17595,16124,13516,17510,19365,22550,24216,24305,23120,17672,14242,10292,7103,3566,1302,305,105,1292967,1
387,407,사덕시장,부산광역시 강서구 대저1동 2343-20,35.21297,128.9827,2644010100,2644051000,부산광역시,강서구,대저1동,1,0,0,3,1,0,88,1,16,1,2,5,3,2,2,58,12,872519,6848,83,99,130,170,279,385,295,296,339,382,547,728,906,749,563,455,258,125,44,12,3,137957,9310,10785,7106,4608,5054,7281,10908,16400,13829,9838,8263,8684,9258,6589,4111,2764,1782,893,369,78,47,1380570,1
1043,1192,구지시장,대구광역시 달성군 구지면 창리 424-2,35.65777,128.4126,2771038021,2771038000,대구광역시,달성군,구지면,0,0,1,4,1,1,88,1,5,0,4,15,0,0,1,157,19,550952,13263,978,830,539,326,450,868,1330,1550,1226,913,812,794,766,598,414,345,312,159,44,8,1,259339,13849,15569,12689,11234,13687,15357,18059,23639,22567,20904,20556,20295,17845,12000,8214,5774,4153,2122,667,129,30,1305265,0
381,401,이동공설시장,경상남도 남해군 이동면 무림리 1140,34.80114,127.9538,4884031024,4884031000,경상남도,남해군,이동면,1,0,0,28,1,1,88,1,0,0,3,2,1,0,0,22,1,39449,3733,23,53,142,92,125,95,89,68,124,213,259,364,394,382,387,304,326,207,75,10,1,42958,606,985,1298,1639,1952,1362,1079,1388,1827,2769,3274,4071,4450,3864,3532,3141,2974,1901,669,161,16,1198237,1
1261,1631,문산시장,경상남도 진주시 문산읍 소문리 112-6,35.17047,128.1692,4817025022,4817025000,경상남도,진주시,문산읍,1,0,0,12,1,0,87,2,4,0,1,4,3,1,6,86,10,254338,8188,248,383,343,315,361,425,428,495,496,542,657,762,801,569,447,366,279,183,67,19,2,348096,11575,16821,17309,17916,23331,21812,18811,22837,25276,29022,29982,27809,26563,19205,14459,11106,8113,4301,1420,334,94,1258146,1
1425,1951,남포동건어물도매시장,부산광역시 중구 남포동1가 62-1,35.09684,129.0347,2611013600,2611058000,부산광역시,중구,남포동,0,0,1,140,1,1,87,3,132,3,4,82,2,36,44,2058,394,5475625,1028,4,12,14,14,22,44,40,49,37,72,108,98,183,116,88,67,36,9,10,4,1,41523,526,794,861,1166,2482,3197,2201,2270,2327,3067,3441,3633,4243,3648,2846,2264,1449,648,292,83,85,1214471,0
1407,1888,건어물시장,부산광역시 중구 남포동1가 62-1,35.09683,129.0347,2611013600,2611058000,부산광역시,중구,남포동,0,0,1,156,1,0,87,3,132,3,4,82,2,36,44,2059,394,5475625,1028,4,12,14,14,22,44,40,49,37,72,108,98,183,116,88,67,36,9,10,4,1,41523,526,794,861,1166,2482,3197,2201,2270,2327,3067,3441,3633,4243,3648,2846,2264,1449,648,292,83,85,1214471,0
1781,2634,정이있는 구포시장,부산광역시 북구 구포동 599-18,35.20892,129.0035,2632010500,2632051000,부산광역시,북구,구포제1동,0,1,0,870,1,1,87,2,57,5,7,54,3,8,8,919,125,1398818,14735,430,317,286,428,817,1207,1056,956,810,949,1318,1599,1639,1073,753,538,349,140,50,15,5,283952,8158,10836,10768,12533,18105,19480,15880,17637,18742,21743,25985,27966,26815,18650,12547,8761,5523,2683,835,201,104,1329122,1
1511,2122,정이있는구포시장,부산광역시 북구 구포1동 599-15,35.20884,129.0039,2632010500,2632051000,부산광역시,북구,구포제1동,0,1,0,1036,1,1,87,2,55,5,7,54,3,8,8,924,127,1398818,14735,430,317,286,428,817,1207,1056,956,810,949,1318,1599,1639,1073,753,538,349,140,50,15,5,283952,8158,10836,10768,12533,18105,19480,15880,17637,18742,21743,25985,27966,26815,18650,12547,8761,5523,2683,835,201,104,1329122,1
437,465,대합정기시장,,35.61327,128.4722,4874033021,4874033000,경상남도,창녕군,대합면,1,0,0,0,1,0,86,1,1,0,2,1,1,0,9,33,23,186602,3878,42,59,72,93,133,136,121,132,161,223,332,384,463,362,324,351,283,150,53,3,1,61301,1383,1830,1897,2221,2515,2414,2263,2834,3192,3916,5000,5913,6818,5353,4270,3816,3181,1797,577,82,29,1223798,0
1864,2785,진영전통시장,경상남도 김해시 진영읍 진영리 235-16,35.30231,128.7306,4825025026,4825025000,경상남도,김해시,진영읍,1,0,0,71,1,1,86,3,17,0,6,31,0,3,2,504,70,562409,55932,2798,3710,3405,2635,2786,2630,3604,5293,5623,5231,4479,3800,3581,2370,1561,1079,762,424,127,22,12,542338,20162,29147,30388,30881,36136,32975,29539,40015,45496,52975,52595,44360,35812,22494,15253,11144,7689,3778,1183,228,88,1315568,1
1063,1227,남양시장,화성시 남양읍 남양리 1165-25 일원,37.20953,126.8172,4159026221,4159026200,경기도,화성시,남양읍,0,1,0,434,1,1,86,2,6,0,4,15,5,0,1,192,36,868193,41654,2019,2123,1854,1669,2069,3586,3521,3676,3411,3342,3299,3282,2844,1761,1253,834,608,340,123,36,4,855248,45396,59089,53715,43034,46676,57862,65336,85845,86924,77135,63252,52195,42609,27389,18755,13360,9490,4991,1693,386,116,1407706,1
1785,2639,배둔시장,경상남도 고성군 회화면 배둔리 826-2,35.05748,128.3693,4882040021,4882040000,경상남도,고성군,회화면,1,0,0,64,1,1,85,1,1,0,3,3,1,0,4,63,8,189128,3605,51,91,113,170,148,112,104,138,166,254,295,342,407,386,274,231,188,96,35,4,0,51361,870,1700,1906,2251,2156,1750,1539,2311,2777,3597,4378,4757,5274,4461,3634,3106,2654,1588,544,88,20,1198000,1
897,1009,세지5일시장,전라남도 나주시 세지면 오봉리 246-3,34.92018,126.7479,4617031021,4617031000,전라남도,나주시,세지면,1,0,0,200,1,1,85,1,0,0,2,1,1,0,3,19,2,48037,2664,17,31,59,85,99,105,56,71,99,122,209,267,311,268,242,254,190,120,44,10,5,115613,4589,5544,4863,4526,5722,6692,6568,8023,8264,8197,8373,8883,9383,6784,5978,5572,4286,2310,816,175,65,1212482,1
416,436,여산시장,전라북도 익산시 여산면 여산리 412-4,36.05874,127.0834,4514039021,4514039000,전라북도,익산시,여산면,1,0,0,6,1,0,84,0,0,0,3,1,1,0,2,40,4,77694,3357,92,90,76,91,135,179,145,130,155,184,239,314,337,306,261,258,185,136,36,6,2,282276,7536,11630,12853,15055,19528,16674,12688,15779,18675,23260,24685,24311,23435,17049,13837,10684,7891,4615,1646,339,106,1243771,1
413,433,황등시장,전라북도 익산시 황등면 황등리 588-2,36.00599,126.9453,4514032021,4514032000,전라북도,익산시,황등면,0,1,0,46,1,1,84,1,4,0,5,1,1,0,2,55,7,87601,7186,86,184,216,291,355,304,245,288,301,481,610,715,750,651,559,420,377,230,95,17,11,282276,7536,11630,12853,15055,19528,16674,12688,15779,18675,23260,24685,24311,23435,17049,13837,10684,7891,4615,1646,339,106,1243771,1
28,28,구룡포시장,경상북도 포항시 남구 구룡포읍 구룡포리 963-2,35.99032,129.5541,4711125021,4711125000,경상북도,포항시 남구,구룡포읍,0,1,0,105,1,1,84,1,3,0,1,3,2,4,2,188,43,460942,7568,40,106,99,140,241,228,181,262,322,437,599,835,1030,913,674,667,484,212,74,17,7,230422,6809,10659,10532,10710,13063,13130,11591,15388,16615,19010,20748,20633,20915,15686,10211,7026,4564,2188,713,174,57,1301991,1
1707,2502,공주산성시장,충청남도 공주시 산성동 190-1,36.45882,127.1226,4415010500,4415054000,충청남도,공주시,웅진동,0,1,0,529,1,1,84,0,30,0,10,13,4,14,10,300,93,1076859,8302,214,229,290,420,477,459,392,465,530,614,668,745,795,632,475,389,289,154,46,12,7,104545,2332,3441,3825,4334,6119,5157,4348,5141,5973,7343,8523,9922,10412,8012,6175,5303,4419,2667,858,179,62,1270289,1
286,300,산성시장,,36.45882,127.1226,4415010500,4415054000,충청남도,공주시,웅진동,0,1,0,650,1,1,84,0,30,0,10,13,4,14,10,300,93,1076859,8302,214,229,290,420,477,459,392,465,530,614,668,745,795,632,475,389,289,154,46,12,7,104545,2332,3441,3825,4334,6119,5157,4348,5141,5973,7343,8523,9922,10412,8012,6175,5303,4419,2667,858,179,62,1270289,0
1907,2870,남부 시장,전라북도 전주시 완산구 전동 295-2,35.81274,127.1478,4511111100,4511153000,전라북도,전주시 완산구,풍남동,0,0,1,350,1,1,83,0,67,0,7,39,2,45,15,815,338,932677,4243,45,51,84,102,171,216,186,201,234,303,312,369,469,410,389,323,205,107,48,13,5,339718,9916,14930,16445,19747,25913,23591,18473,21520,23848,29623,29782,27268,24755,17652,14091,9845,6868,3784,1319,266,82,1280338,0
447,475,무안시장,경상남도 밀양시 무안리 814-10,35.46942,128.6525,4827038021,4827038000,경상남도,밀양시,무안면,1,0,0,18,1,1,82,2,2,0,1,2,1,0,0,32,8,204919,5024,40,71,119,136,163,157,120,131,134,245,367,514,687,604,446,405,395,201,75,11,3,104831,2366,3254,3737,4092,4870,4344,3839,5068,5741,7201,8644,10092,11696,9406,6957,5693,4444,2434,764,141,48,1208003,0
1250,1620,묘산시장,경상남도 합천군 묘산면 산제리 41-5,35.65793,128.1121,4889032028,4889032000,경상남도,합천군,묘산면,0,1,0,19,0,1,82,1,0,0,2,0,1,0,13,8,2,48061,1597,9,10,17,54,47,17,36,38,34,76,88,165,193,169,173,154,186,95,31,5,0,44006,646,953,1138,1319,1685,1358,1088,1465,1795,2488,3425,4259,4956,4103,3589,3624,3451,1931,581,112,40,1192591,0
1252,1622,야로시장,경상남도 합천군 야로면 구정리 273-4,35.70613,128.1686,4889034026,4889034000,경상남도,합천군,야로면,1,0,0,32,1,1,82,1,0,0,2,0,0,0,7,14,1,121322,2428,26,43,53,84,77,58,47,89,96,130,161,243,305,265,191,181,210,123,36,9,1,44006,646,953,1138,1319,1685,1358,1088,1465,1795,2488,3425,4259,4956,4103,3589,3624,3451,1931,581,112,40,1192591,0
388,408,덕두시장,부산광역시 강서구 대저2동 2014-29,35.17959,128.9562,2644010200,2644052000,부산광역시,강서구,대저2동,1,0,0,11,1,0,81,1,44,1,3,6,2,0,0,89,11,657565,7119,209,289,243,227,356,473,450,421,452,439,496,613,772,569,414,300,211,122,48,9,6,137957,9310,10785,7106,4608,5054,7281,10908,16400,13829,9838,8263,8684,9258,6589,4111,2764,1782,893,369,78,47,1380570,1
192,195,안덕시장,경상북도 청송군 안덕면 명당리 434-5,36.28838,128.9587,4775035033,4775035000,경상북도,청송군,안덕면,1,0,0,13,1,0,81,1,1,0,2,0,3,1,1,15,5,36323,2609,36,41,42,51,50,63,56,60,74,128,203,289,339,280,266,261,203,117,40,8,2,25044,424,555,534,673,850,844,792,901,1016,1383,2073,2635,2982,2545,2046,1996,1633,833,262,46,21,1124647,0
191,194,화목시장,경상북도 청송군 현서면 구산리 100-14,36.27533,128.8974,4775034043,4775034000,경상북도,청송군,현서면,1,0,0,20,0,0,81,1,0,0,3,1,2,0,0,24,7,50464,2532,30,31,43,54,56,63,61,68,77,113,187,286,392,309,259,193,174,100,30,5,1,25044,424,555,534,673,850,844,792,901,1016,1383,2073,2635,2982,2545,2046,1996,1633,833,262,46,21,1124647,0
1258,1628,원남시장,충청북도 보은군 삼승면 원남리 191-7,36.39643,127.733,4372035021,4372035000,충청북도,보은군,삼승면,1,0,0,25,0,0,81,0,0,0,2,0,2,0,5,18,6,58004,2295,21,36,68,69,82,69,68,93,79,114,160,232,313,209,189,194,178,96,23,1,1,32412,629,835,968,1143,1341,1036,942,1268,1389,1931,2561,3339,3813,3001,2357,2227,1969,1145,415,75,28,1252230,0
926,1041,송정시장,부산광역시 기장군 철마면 송정리 577-2,35.30473,129.1116,2671033024,2671033000,부산광역시,기장군,철마면,1,0,0,32,1,1,81,0,2,0,2,2,0,0,7,41,3,363691,8080,138,263,242,192,329,410,298,393,447,560,672,762,928,836,639,442,334,132,48,13,2,174545,7995,11158,9363,8112,8246,8820,9915,15045,16834,15381,12752,11254,11928,9470,7184,5151,3446,1704,578,166,43,1266183,1
550,609,봉계시장,울산광역시 울주군 두동면 봉계리 525,35.71338,129.1992,3171036026,3171036000,울산광역시,울주군,두동면,0,1,0,18,1,1,80,1,4,0,0,0,1,0,2,49,7,132910,4229,64,76,97,93,156,149,133,156,174,257,426,487,615,449,305,233,195,103,48,11,2,222538,7467,10339,10894,11578,13608,12904,11396,14452,16863,20454,21609,20281,17710,11820,7942,5799,4111,2305,792,180,34,1335240,1
1251,1621,가야시장,경상남도 합천군 가야면 황산리 279-11,35.76048,128.1384,4889033031,4889033000,경상남도,합천군,가야면,1,0,0,46,1,1,79,1,8,0,2,2,1,5,6,28,6,76931,4272,40,63,106,100,150,125,97,114,142,248,411,455,500,438,388,358,304,175,48,6,4,44006,646,953,1138,1319,1685,1358,1088,1465,1795,2488,3425,4259,4956,4103,3589,3624,3451,1931,581,112,40,1192591,0
51,51,양북시장,경상북도 경주시 양북면 어일리 1295-558,35.79041,129.4412,4713031521,4713031500,경상북도,경주시,양북면,1,0,0,48,1,1,79,1,2,0,2,2,1,0,7,36,10,142225.4255,4327,133,95,72,117,201,244,243,237,182,205,291,371,450,379,297,318,273,153,52,11,3,253502,253502,6761,9435,9926,10910,14203,12718,11282,14178,16081,20606,23125,23727,23237,17932,13429,11094,8452,4560,1421,333,1266007,0
913,1026,금촌전통시장,경기도 파주시 금촌동 64-19,37.7626,126.7739,4148010100,4148051000,경기도,파주시,금촌1동,0,0,1,96,1,1,79,3,44,1,2,55,4,4,1,746,92,1610371,22347,492,645,656,855,1540,1912,1364,1460,1453,1852,2127,2092,1859,1245,1006,830,534,288,100,22,15,465617,18504,25810,25369,23693,26894,29982,29691,37344,38803,42037,38726,34126,29723,19695,15569,13212,9484,4684,1673,402,196,1331641,1
461,491,해보5일시장,전라남도 함평군 해보면 금덕리 414-9,35.18105,126.6026,4686037025,4686037000,전라남도,함평군,해보면,1,0,0,26,1,1,78,1,3,0,2,0,3,0,2,27,3,36035,2860,40,60,61,68,135,118,86,98,126,192,232,294,338,229,226,218,189,96,40,7,7,32050,616,771,914,1134,1373,1143,938,1186,1421,2056,2532,2973,3273,2646,2566,2589,2286,1118,396,94,25,1204352,0
52,52,양남시장,경상북도 경주시 양남면 하서리 1466-2,35.67538,129.4637,4713032021,4713032000,경상북도,경주시,양남면,0,1,0,60,1,1,78,1,3,0,2,2,2,1,1,61,16,187255,6322,107,178,168,166,283,323,240,271,321,395,633,689,768,557,388,355,270,129,67,11,3,253502,6761,9435,9926,10910,14203,12718,11282,14178,16081,20606,23125,23727,23237,17932,13429,11094,8452,4560,1421,333,92,1266007,0
1868,2795,동쪽바다중앙시장,강원도 동해시 발한동 7-1,37.55105,129.1085,4217011100,4217057000,강원도,동해시,발한동,0,0,1,200,1,1,78,0,29,0,3,10,1,0,6,198,27,195267,3568,38,67,65,102,153,119,87,139,159,264,273,320,429,380,327,297,205,96,31,13,4,90593,2660,3965,4185,4632,5136,4283,3731,5502,6582,7987,8107,7531,7999,5906,4271,3811,2510,1240,406,118,31,1281849,1
927,1042,기장시장,부산광역시 기장군 기장읍 대라리 72-1,35.2437,129.2149,2671025026,2671025000,부산광역시,기장군,기장읍,0,0,1,149,1,1,77,2,47,1,3,39,6,3,7,555,63,1194539,53230,1385,1793,2037,2433,3098,3292,2538,3061,3771,4580,4843,4587,4640,3585,2806,2188,1510,746,250,67,20,174545,7995,11158,9363,8112,8246,8820,9915,15045,16834,15381,12752,11254,11928,9470,7184,5151,3446,1704,578,166,43,1266183,0
864,965,중앙선어시장,전라남도 여수시 중앙동 385-11,34.7394,127.737,4613010700,4613057000,전라남도,여수시,중앙동,0,0,1,29,0,1,76,1,42,0,7,31,0,5,7,711,160,1784559,4452,57,94,134,166,220,192,151,200,260,307,345,383,473,486,413,297,174,66,21,5,8,280242,8793,12149,12448,13964,17595,16124,13516,17510,19365,22550,24216,24305,23120,17672,14242,10292,7103,3566,1302,305,105,1292967,0
1270,1640,천전시장,경상남도 진주시 칠암동306-1,35.18505,128.0886,4817010400,4817051500,경상남도,진주시,천전동,0,0,1,78,1,0,76,0,70,0,4,45,8,11,4,556,152,1178860,27523,565,994,1164,1322,2234,2029,1267,1395,1697,2221,2375,2168,2215,1784,1472,1243,826,372,126,38,16,348096,11575,16821,17309,17916,23331,21812,18811,22837,25276,29022,29982,27809,26563,19205,14459,11106,8113,4301,1420,334,94,1258146,1
1114,1337,중앙시장,충청남도 부여군 부여읍 구아리 166,36.28235,126.9122,4476025029,4476025000,충청남도,부여군,부여읍,0,0,1,84,1,1,76,2,48,0,4,18,2,14,5,350,46,989043,20330,358,706,881,1023,1196,998,761,850,1150,1517,1807,1881,2070,1492,1272,986,744,427,158,37,16,65354,1082,1842,2102,2572,3104,2321,1935,2467,3044,4160,4874,5984,7184,5853,4967,4490,3900,2430,816,173,54,1203666,1
386,406,명지시장,부산광역시 강서구 명지동 1-377,35.11254,128.9316,2644010400,2644053500,부산광역시,강서구,명지1동,0,0,1,120,1,1,76,1,8,0,2,4,1,0,0,101,18,1281842,50325,4966,4707,2604,1486,1652,2626,5330,7748,5529,3168,2414,2355,2281,1541,869,489,317,155,63,16,9,137957,9310,10785,7106,4608,5054,7281,10908,16400,13829,9838,8263,8684,9258,6589,4111,2764,1782,893,369,78,47,1380570,1
306,320,연무안심시장,,36.13013,127.0981,4423025331,4423025300,충청남도,논산시,연무읍,1,0,0,120,1,1,76,1,16,0,5,9,3,0,0,138,22,218846,13732,397,501,543,557,660,670,601,691,775,905,1009,1176,1336,1061,868,754,668,388,132,30,10,116675,3043,4189,4696,5110,6025,5362,4943,5821,6762,8641,9352,10351,11285,8722,6945,6102,5047,3003,966,217,93,1243114,0
1866,2787,김해(동상)전통시장,경상남도 김해시 동상동 879-5,35.23592,128.8842,4825010100,4825051000,경상남도,김해시,동상동,0,0,1,170,1,1,76,3,65,0,8,39,7,5,4,522,136,745830,9912,287,287,284,404,608,733,642,613,615,772,962,1041,945,651,410,317,192,101,35,6,7,542338,20162,29147,30388,30881,36136,32975,29539,40015,45496,52975,52595,44360,35812,22494,15253,11144,7689,3778,1183,228,88,1315568,1
384,404,고현공성시장,경상남도 남해군 고현면 대사리 768,34.89702,127.8729,4884037027,4884037000,경상남도,남해군,고현면,1,0,0,26,1,1,75,1,0,0,2,2,0,0,4,12,0,43599,3543,37,73,94,81,115,104,69,97,133,178,245,327,374,334,310,334,303,223,86,25,1,42958,606,985,1298,1639,1952,1362,1079,1388,1827,2769,3274,4071,4450,3864,3532,3141,2974,1901,669,161,16,1198237,1
876,981,금남대평시장,세종특별자치시 금남면 용포리 205-42,36.46727,127.2821,3611034021,3611034000,세종특별자치시,세종특별자치시,금남면,1,0,0,64,1,1,75,3,3,0,3,15,4,0,2,171,35,1069852,8865,143,179,188,217,386,502,452,434,454,568,744,885,980,787,601,559,409,257,98,17,5,355831,20901,26382,24319,18358,17056,20397,26014,35478,36398,32433,24767,20438,18009,12130,8276,6116,4429,2680,994,206,50,1348116,1
877,982,전의왕의물시장,세종특별자치시 전의면 읍내리 236-2,36.67774,127.2059,3611037021,3611037000,세종특별자치시,세종특별자치시,전의면,1,0,0,72,1,1,75,1,5,0,2,5,0,0,3,67,13,345093,5686,69,126,181,213,281,282,241,285,266,430,464,589,560,442,341,339,316,174,58,24,5,355831,20901,26382,24319,18358,17056,20397,26014,35478,36398,32433,24767,20438,18009,12130,8276,6116,4429,2680,994,206,50,1348116,1
1072,1275,과역전통시장,전라남도 고흥군 과역면 과역리 162-2,34.67902,127.3627,4677038026,4677038000,전라남도,고흥군,과역면,1,0,0,82,1,1,75,1,1,0,3,2,1,0,7,41,3,63916,3316,30,55,48,73,122,104,70,78,99,156,250,338,380,337,315,301,312,162,65,17,4,63922,1197,1422,1737,2123,2424,1748,1579,2104,2723,3618,4579,5625,6745,5990,5970,5544,4841,2661,994,247,51,1158239,1
178,181,의성,경상북도 의성군 의성읍 도동리 966,36.34625,128.6992,4773025024,4773025000,경상북도,의성군,의성읍,1,0,0,117,1,1,75,2,23,0,6,8,1,1,4,196,34,204076,13447,357,449,513,510,570,576,524,668,780,975,1030,1205,1406,1145,939,767,590,298,110,24,11,51724,1009,902,1048,1248,1571,1583,1497,1746,1967,2733,3680,5034,6228,5561,4485,4453,3912,2223,667,129,48,1150474,0
89,89,안동구시장,,36.56581,128.7279,4717010200,4717051000,경상북도,안동시,중구동,0,0,1,234,1,1,75,2,106,0,9,22,3,14,7,586,121,2853333,5068,121,118,157,185,291,237,211,281,284,343,409,430,444,466,381,325,214,115,42,12,2,158907,4496,6147,6482,7254,8659,8131,6912,8569,10168,12164,13077,13423,14232,11409,8686,7940,6230,3414,1185,267,62,1235582,0
1704,2499,중앙시장,경상남도 창원시 진해구 화천동 60-1,35.15107,128.6656,4812913100,4812953000,경상남도,창원시 진해구,충무동,0,0,1,279,1,1,75,1,56,0,7,30,3,7,3,515,83,1249286,17355,644,905,935,904,1010,1180,1042,1201,1449,1505,1189,1067,1134,980,833,597,451,242,73,12,2,192755,7892,11485,11087,9866,10177,10343,10906,16126,17655,17463,14884,13554,13593,9985,6845,4954,3528,1760,528,106,18,1288860,1
179,182,단촌,경상북도 의성군 단촌면 하화리 1097-9,36.42255,128.6739,4773031031,4773031000,경상북도,의성군,단촌면,1,0,0,48,1,1,74,0,0,0,1,0,0,0,6,14,5,23471,1937,17,7,27,35,45,39,42,47,53,90,127,194,274,256,155,216,197,89,21,4,2,51724,1009,902,1048,1248,1571,1583,1497,1746,1967,2733,3680,5034,6228,5561,4485,4453,3912,2223,667,129,48,1150474,0
433,461,창녕정기시장,경상남도 창녕군 창녕읍 술정리 45-1,35.54007,128.4973,4874025037,4874025000,경상남도,창녕군,창녕읍,1,0,0,50,1,1,74,1,19,0,7,12,5,7,8,246,40,501765,16994,582,739,739,821,935,828,818,1039,1058,1286,1406,1459,1582,1106,872,712,550,337,106,14,5,61301,1383,1830,1897,2221,2515,2414,2263,2834,3192,3916,5000,5913,6818,5353,4270,3816,3181,1797,577,82,29,1223798,0
1070,1273,녹동전통시장,전라남도 고흥군 도양읍 봉암리 2699-45,34.52795,127.1374,4677025324,4677025300,전라남도,고흥군,도양읍,0,0,1,67,1,1,74,1,3,0,2,14,2,1,4,194,13,128832,9813,241,284,323,437,469,284,291,430,500,697,783,888,1020,863,842,634,467,247,81,27,5,63922,1197,1422,1737,2123,2424,1748,1579,2104,2723,3618,4579,5625,6745,5990,5970,5544,4841,2661,994,247,51,1158239,1
407,427,중앙시장,전라북도 익산시 창인동1가 137-1,35.94206,126.9497,4514010100,4514052000,전라북도,익산시,중앙동,0,0,1,174,1,1,74,2,41,0,12,25,7,9,4,402,91,954798,3468,38,66,60,82,161,216,150,152,180,245,244,306,392,348,328,237,149,64,35,10,5,282276,7536,11630,12853,15055,19528,16674,12688,15779,18675,23260,24685,24311,23435,17049,13837,10684,7891,4615,1646,339,106,1243771,1
940,1055,부천자유시장,경기도 부천시 심곡본동543,37.48411,126.7799,4119011100,4119074600,경기도,부천시,대산동,0,0,1,312,1,0,74,3,89,1,6,119,3,9,3,1525,279,2545786,82010,2106,2578,2993,3378,5175,6478,5492,5782,5763,6643,7083,7677,7479,4956,3393,2335,1560,758,266,84,31,818383,24837,32387,33516,37060,54014,63394,54637,61397,60959,68192,72701,74895,68442,42172,27532,19106,12925,6875,2501,591,250,1327308,0
201,204,이서시장,경상북도 청도군 이서면 학산리 578-13,35.66271,128.6664,4782034044,4782034000,경상북도,청도군,이서면,1,0,0,11,1,1,73,1,2,0,3,2,0,0,1,20,10,132161,4507,57,71,131,126,139,135,111,131,178,278,314,462,539,518,421,334,308,170,65,17,2,42263,653,873,1066,1188,1492,1373,1195,1582,1873,2566,3147,4155,5073,4540,3641,2947,2672,1608,496,102,21,1181957,1
1876,2803,송정시장,강원도 동해시 송정동 848-27,37.4993,129.125,4217010300,4217052000,강원도,동해시,송정동,0,0,1,15,1,0,73,1,9,0,2,7,7,1,3,62,6,214195,4071,56,109,100,154,288,267,154,162,244,302,347,373,412,311,251,230,174,92,31,13,1,90593,2660,3965,4185,4632,5136,4283,3731,5502,6582,7987,8107,7531,7999,5906,4271,3811,2510,1240,406,118,31,1281849,1
1441,2002,안의시장,경상남도 함양군 안의면 석천리 243,35.6263,127.814,4887036024,4887036000,경상남도,함양군,안의면,1,0,0,25,1,1,73,1,8,0,3,3,2,0,3,45,5,124479,4574,44,83,122,128,152,98,99,150,163,257,349,398,535,455,412,402,385,229,84,21,8,39080,710,1094,1403,1568,1717,1379,1105,1521,1782,2605,3338,3603,4028,3266,2813,2703,2516,1322,461,113,33,1197359,0
1073,1276,동강전통시장,전라남도 고흥군 동강면 유둔리 7,34.78057,127.3348,4677040021,4677040000,전라남도,고흥군,동강면,1,0,0,43,1,1,73,1,1,0,2,0,1,0,0,14,2,35252,3117,59,59,51,71,123,73,68,99,114,158,193,280,345,335,312,266,268,166,64,9,4,63922,1197,1422,1737,2123,2424,1748,1579,2104,2723,3618,4579,5625,6745,5990,5970,5544,4841,2661,994,247,51,1158239,1
1574,2262,용산용문전통시장,서울특별시 용산구 효창원로 40길 13,37.53662,126.9598,1117012100,1117059000,서울특별시,용산구,용문동,0,0,1,151,1,1,73,5,71,6,11,67,2,19,4,897,204,6152051,12327,380,386,386,457,778,1078,987,1036,873,990,1043,932,874,678,540,432,291,102,54,17,13,230040,6298,7198,7192,8417,13757,19728,19058,19011,16998,18700,19133,17937,16834,12006,9415,7788,5640,2932,1193,434,371,1492947,1
887,999,용산용문시장,서울특별시 용산구 용문동 41-44,37.53662,126.9598,1117012100,1117059000,서울특별시,용산구,용문동,0,0,1,157,1,0,73,5,71,6,11,67,2,19,4,897,204,6152051,12327,380,386,386,457,778,1078,987,1036,873,990,1043,932,874,678,540,432,291,102,54,17,13,230040,6298,7198,7192,8417,13757,19728,19058,19011,16998,18700,19133,17937,16834,12006,9415,7788,5640,2932,1193,434,371,1492947,1
1399,1880,창선상가,부산광역시 중구 창선동2가 26-1,35.09971,129.0283,2611013200,2611057000,부산광역시,중구,광복동,0,0,1,242,1,1,73,3,162,4,9,97,2,37,45,2124,408,14261875,1060,7,10,18,20,48,67,45,61,57,65,92,104,127,121,82,51,45,20,13,2,5,41523,526,794,861,1166,2482,3197,2201,2270,2327,3067,3441,3633,4243,3648,2846,2264,1449,648,292,83,85,1214471,0
1398,1879,국제시장,부산광역시 중구 신창동4가 40-5,35.10154,129.0281,2611013000,2611057000,부산광역시,중구,광복동,0,0,1,580,1,1,73,2,172,4,13,106,1,44,44,2163,425,6886000,1060,7,10,18,20,48,67,45,61,57,65,92,104,127,121,82,51,45,20,13,2,5,41523,526,794,861,1166,2482,3197,2201,2270,2327,3067,3441,3633,4243,3648,2846,2264,1449,648,292,83,85,1214471,0
1886,2828,북천공설시장,경상남도 하동군 북천면 직전리 597-1,35.11372,127.892,4885039023,4885039000,경상남도,하동군,북천면,1,0,0,18,1,1,72,1,0,0,1,0,0,0,4,12,2,17884,1747,44,21,38,49,51,39,48,56,62,93,132,151,218,166,149,153,156,83,32,5,1,44785,772,1057,1367,1516,1921,1539,1285,1499,1957,3013,3993,4436,4940,3981,3280,3092,2785,1599,619,111,23,1217884,0
1008,1140,갈산전통시장,충청남도 홍성군 갈산면 상촌리 174,36.60301,126.5512,4480038021,4480038000,충청남도,홍성군,갈산면,0,1,0,30,1,1,72,1,3,0,3,2,2,1,4,37,9,146548,3533,28,46,77,68,110,92,89,115,103,169,204,377,424,425,326,294,325,180,63,13,5,100102,3260,4456,4810,4796,5160,4570,4520,5961,6646,7834,7676,8249,8159,6600,5472,4586,4023,2382,710,171,61,1302779,1
176,179,우보시장,,36.19471,128.6642,4772034031,4772034000,경상북도,군위군,우보면,1,0,0,,1,1,72,1,2,0,2,0,2,0,3,13,4,36708,2007,10,9,16,24,62,49,36,45,53,85,129,231,265,238,219,197,189,113,26,8,3,23256,303,378,459,502,794,728,630,679,900,1259,1777,2535,2851,2485,2064,1954,1680,932,286,45,15,1211067,1
1368,1814,안성시장,전라북도 무주군 안성면 장기리 1511-6,35.86633,127.6536,4573034021,4573034000,전라북도,무주군,안성면,1,0,0,30,1,1,71,1,4,0,3,2,1,0,0,29,3,113830,4258,46,80,129,127,123,121,110,131,159,227,333,445,488,431,338,365,349,181,58,9,8,24036,458,754,905,915,931,851,770,930,1257,1618,1984,2221,2367,2025,1685,1695,1505,812,269,62,22,1200102,0
1375,1824,안성시장(덕유산장터),전라북도 무주군 안성면 장기리 1511-123,35.86657,127.6538,4573034021,4573034000,전라북도,무주군,안성면,0,1,0,30,1,1,71,1,4,0,3,2,1,0,0,29,3,113830,4258,46,80,129,127,123,121,110,131,159,227,333,445,488,431,338,365,349,181,58,9,8,24036,458,754,905,915,931,851,770,930,1257,1618,1984,2221,2367,2025,1685,1695,1505,812,269,62,22,1200102,0
963,1079,서대신1동골목시장,부산광역시 서구 서대신동1가149-4,35.10866,129.0144,2614010400,2614054000,부산광역시,서구,서대신제1동,0,0,1,42,0,0,71,2,58,2,12,54,5,6,3,632,115,1698939,13689,504,611,514,564,832,897,810,1052,1026,1099,1044,1035,1010,838,678,562,364,160,67,17,5,108135,2315,3307,3386,3901,6648,6893,5193,6013,6720,7987,8673,9329,10424,8690,6945,5424,3722,1704,578,160,123,1290550,1
688,753,밤나무골시장,,37.60912,127.0357,1129013600,4113566500,경기도,성남시 분당구,구미1동,0,0,1,55,0,0,71,4,70,2,13,73,8,6,2,1229,198,3853197,17792,600,756,771,915,1226,1472,1469,1340,1373,1611,1539,1382,1116,705,534,407,295,183,82,14,2,482232,15586,24120,26481,27206,30613,35178,33285,36629,40565,46041,41655,34647,29828,19593,14432,11041,8195,4708,1881,452,96,1390001,0
1084,1290,부전기장골목시장,부산광역시 부산진구 부전동 341-70,35.1622,129.0613,2623010300,2623051000,부산광역시,부산진구,부전제1동,0,0,1,61,0,0,71,4,137,4,7,109,1,18,17,2664,641,7487876,15533,360,270,212,339,1237,2060,1339,1068,826,970,1248,1264,1368,1055,751,553,376,154,51,16,16,359886,9349,11969,11722,13283,23393,29388,23443,24551,24430,27268,28695,29941,31558,24456,18126,13639,8928,3991,1236,288,232,1319027,0
1044,1194,진천중앙시장,충청북도 진천군 진천읍 읍내리 305-10번지,36.85707,127.4423,4375025024,4375025000,충청북도,진천군,진천읍,0,1,0,64,1,1,71,4,30,0,4,32,4,4,1,399,73,959747,30013,903,1341,1535,1698,2024,1862,1313,1889,2328,2664,2825,2514,2151,1561,1151,934,780,385,128,22,5,83718,3360,4368,4239,3853,4300,4926,4953,6566,6808,6754,6977,6756,6096,4258,2958,2574,2291,1196,380,85,20,1407947,0
1451,2016,한림매일시장,제주특별자치도 제주시 한림읍 한림리 1584,33.41669,126.2641,5011025024,5011025000,제주특별자치도,제주시,한림읍,0,0,1,66,1,1,71,1,16,0,2,18,2,1,0,261,40,364449,21249,592,924,891,876,1057,1005,873,1269,1573,1925,1957,1905,1791,1257,1073,885,723,451,153,41,28,492466,19099,26625,26518,26756,31765,31831,26860,35826,38692,44220,42818,37935,32801,22077,16937,13153,9830,5747,2103,675,198,1299830,0
1408,1889,새영주시장,부산광역시 중구 영주동 20-15,35.1127,129.0364,2611010100,2611059000,부산광역시,중구,영주제1동,0,0,1,68,0,0,71,1,106,2,9,61,3,20,15,885,181,1110545,4792,77,105,100,112,288,511,334,329,263,401,386,334,407,367,286,224,146,78,27,8,9,41523,526,794,861,1166,2482,3197,2201,2270,2327,3067,3441,3633,4243,3648,2846,2264,1449,648,292,83,85,1214471,0
1685,2447,하단5일상설시장,부산광역시 사하구 하단동 143-3,35.10392,128.9698,2638010300,2638056100,부산광역시,사하구,하단제1동,0,0,1,98,0,0,71,4,86,2,10,58,3,3,1,905,111,2296402,21792,483,767,773,924,1666,1978,1420,1451,1369,1623,1771,1887,1984,1363,1019,614,441,176,57,16,10,311757,8191,11778,11883,13502,19724,20104,16530,20447,21529,24494,26933,27949,29123,22119,15550,10685,6736,2965,1086,267,162,1282615,0
707,775,역전시장 상점가,대전광역시 동구 정동 1-227,36.32997,127.434,3011011900,3011051500,대전광역시,동구,중앙동,0,0,1,110,0,0,71,1,96,3,7,58,1,30,6,929,306,1447878,4963,42,66,58,85,145,228,193,218,232,325,425,569,662,507,465,347,231,109,33,11,12,223021,6227,8783,9383,10518,15870,14316,11557,14295,15796,18284,18462,18274,18723,13841,10601,8549,5622,2693,920,209,98,1261808,0
224,227,무극시장,충청북도 음성군 금왕읍 무극리 77-17,36.99267,127.596,4377025321,4377025300,충청북도,음성군,금왕읍,1,0,0,114,1,1,71,1,7,0,4,24,2,1,6,249,31,744311,19922,520,775,890,1115,1144,1097,875,1109,1455,1866,2012,1886,1707,1115,745,688,525,272,95,16,15,93153,2410,3484,3658,3989,4688,4812,4328,5346,6236,7529,8674,9064,8957,6298,4301,3929,2994,1675,584,138,59,1350881,1
1254,1624,삼가시장,경상남도 합천군 삼가면 일부리 921-1,35.41281,128.1223,4889043024,4889043000,경상남도,합천군,삼가면,0,1,0,129,1,1,71,1,3,0,3,1,1,0,0,44,13,192735,3280,27,53,44,87,122,88,51,80,110,181,241,311,398,324,330,311,275,181,49,10,7,44006,646,953,1138,1319,1685,1358,1088,1465,1795,2488,3425,4259,4956,4103,3589,3624,3451,1931,581,112,40,1192591,0
1298,1701,영천시장,서울특별시 서대문구 영천동 294,37.5709,126.9611,1141010800,1141052000,서울특별시,서대문구,천연동,0,0,1,134,1,0,71,3,64,2,16,49,1,46,10,739,178,6295438,17784,618,644,689,778,1071,1206,1096,1324,1254,1555,1550,1459,1250,941,769,672,531,241,81,26,29,312173,9060,11115,10915,12707,22638,27718,21991,23118,22264,25223,25575,23792,22301,16257,13272,11032,7692,3554,1283,368,298,1397704,0
1094,1300,부전농수산물새벽시장,부산광역시 부산진구 부전동 347-1,35.16225,129.0583,2623010300,2623051000,부산광역시,부산진구,부전제1동,0,0,1,510,0,0,71,5,134,5,8,114,1,18,16,2633,607,7487876,15533,360,270,212,339,1237,2060,1339,1068,826,970,1248,1264,1368,1055,751,553,376,154,51,16,16,359886,9349,11969,11722,13283,23393,29388,23443,24551,24430,27268,28695,29941,31558,24456,18126,13639,8928,3991,1236,288,232,1319027,0
1093,1299,부전상가,부산광역시 부산진구 부전동 265-25,35.16035,129.0596,2623010300,2623051000,부산광역시,부산진구,부전제1동,0,0,1,704,1,0,71,5,159,6,8,126,2,23,18,2920,713,7487876,15533,360,270,212,339,1237,2060,1339,1068,826,970,1248,1264,1368,1055,751,553,376,154,51,16,16,359886,9349,11969,11722,13283,23393,29388,23443,24551,24430,27268,28695,29941,31558,24456,18126,13639,8928,3991,1236,288,232,1319027,1
158,158,함창시장,경상북도 상주시 함창읍 구향리 122-9,36.5676,128.1801,4725025021,4725025000,경상북도,상주시,함창읍,1,0,0,16,1,1,70,1,3,0,6,2,3,0,0,58,9,185357,6564,124,154,215,285,232,192,189,275,305,430,477,614,723,606,511,457,442,228,77,19,9,97228,2191,3009,3466,4075,4636,3527,3210,4235,4876,6614,7690,9038,10189,8129,6697,5942,5393,2973,1027,249,62,1212026,0
448,476,송지시장,경상남도 밀양시 송지리 359-15,35.39687,128.8372,4827025021,4827025000,경상남도,밀양시,삼랑진읍,1,0,0,50,1,0,70,1,3,0,4,5,4,0,2,53,8,309966,5383,57,91,119,130,159,175,142,181,238,274,416,579,743,636,480,435,323,140,49,14,2,104831,2366,3254,3737,4092,4870,4344,3839,5068,5741,7201,8644,10092,11696,9406,6957,5693,4444,2434,764,141,48,1208003,0
449,477,수산시장,경상남도 밀양시 수산리 815-16,35.37438,128.7087,4827025321,4827025300,경상남도,밀양시,하남읍,0,1,0,58,1,0,70,1,3,0,3,4,0,0,0,90,14,264804,7165,121,166,171,261,258,238,211,283,341,420,583,741,857,753,567,502,409,211,57,8,7,104831,2366,3254,3737,4092,4870,4344,3839,5068,5741,7201,8644,10092,11696,9406,6957,5693,4444,2434,764,141,48,1208003,0
1055,1219,도계전두시장,강원도 삼척시 도계읍 전두리 83-35,37.22866,129.0424,4223025033,4223025000,강원도,삼척시,도계읍,0,0,1,62,1,1,70,1,15,0,6,8,1,1,3,102,12,154055,10044,127,199,275,485,1453,404,233,332,452,644,746,928,1064,794,637,593,406,187,54,15,16,65243,1720,2141,2334,2800,4433,2803,2511,3284,3923,5000,5485,5846,6391,4776,3796,3391,2576,1400,477,105,51,1239207,1
